{
  "StreetsItems": [
    {
      "GoogleApiUrl": "http://maps.googleapis.com/maps/api/geocode/json?address=אלזית,+בית ג'ן,+ישראל&sensor=true_or_false",
      "Lat": 32.965655,
      "Lng": 35.381268,
      "Desc": null,
      "UId": 41608,
      "Status": "OK",
      "Id": "6125",
      "CodeCity": "480",
      "City": "בית ג'ן",
      "CodeAddr": "264",
      "Addr": "אלזית",
      "Tbl": "טבלת רחובות"
    },
    {
      "GoogleApiUrl": "http://maps.googleapis.com/maps/api/geocode/json?address=בני עי\"ש,+בני עי\"ש,+ישראל&sensor=true_or_false",
      "Lat": 31.789125,
      "Lng": 34.761325,
      "Desc": null,
      "UId": 43538,
      "Status": "OK",
      "Id": "7863",
      "CodeCity": "1066",
      "City": "בני עי\"ש",
      "CodeAddr": "9000",
      "Addr": "בני עי\"ש",
      "Tbl": "טבלת רחובות"
    },
    {
      "GoogleApiUrl": "http://maps.googleapis.com/maps/api/geocode/json?address=גבורי ישראל,+בני עי\"ש,+ישראל&sensor=true_or_false",
      "Lat": 31.7891047,
      "Lng": 34.756871,
      "Desc": null,
      "UId": 43539,
      "Status": "OK",
      "Id": "7864",
      "CodeCity": "1066",
      "City": "בני עי\"ש",
      "CodeAddr": "106",
      "Addr": "גבורי ישראל",
      "Tbl": "טבלת רחובות"
    },
    {
      "GoogleApiUrl": "http://maps.googleapis.com/maps/api/geocode/json?address=גני הכפר,+בני עי\"ש,+ישראל&sensor=true_or_false",
      "Lat": 31.790235,
      "Lng": 34.759291,
      "Desc": null,
      "UId": 43540,
      "Status": "OK",
      "Id": "7865",
      "CodeCity": "1066",
      "City": "בני עי\"ש",
      "CodeAddr": "6500",
      "Addr": "גני הכפר",
      "Tbl": "טבלת רחובות"
    },
    {
      "GoogleApiUrl": "http://maps.googleapis.com/maps/api/geocode/json?address=גני טל,+בני עי\"ש,+ישראל&sensor=true_or_false",
      "Lat": 31.789883,
      "Lng": 34.761294,
      "Desc": null,
      "UId": 43541,
      "Status": "OK",
      "Id": "7866",
      "CodeCity": "1066",
      "City": "בני עי\"ש",
      "CodeAddr": "6502",
      "Addr": "גני טל",
      "Tbl": "טבלת רחובות"
    },
    {
      "GoogleApiUrl": "http://maps.googleapis.com/maps/api/geocode/json?address=דרך הנצחון,+בני עי\"ש,+ישראל&sensor=true_or_false",
      "Lat": 31.7892388,
      "Lng": 34.7598266,
      "Desc": null,
      "UId": 43542,
      "Status": "OK",
      "Id": "7867",
      "CodeCity": "1066",
      "City": "בני עי\"ש",
      "CodeAddr": "127",
      "Addr": "דרך הנצחון",
      "Tbl": "טבלת רחובות"
    },
    {
      "GoogleApiUrl": "http://maps.googleapis.com/maps/api/geocode/json?address=האורן,+בני עי\"ש,+ישראל&sensor=true_or_false",
      "Lat": 31.82482,
      "Lng": 34.744924999999988,
      "Desc": null,
      "UId": 43543,
      "Status": "OK",
      "Id": "7868",
      "CodeCity": "1066",
      "City": "בני עי\"ש",
      "CodeAddr": "123",
      "Addr": "האורן",
      "Tbl": "טבלת רחובות"
    },
    {
      "GoogleApiUrl": "http://maps.googleapis.com/maps/api/geocode/json?address=האיריסים,+בני עי\"ש,+ישראל&sensor=true_or_false",
      "Lat": 31.7881714,
      "Lng": 34.7593079,
      "Desc": null,
      "UId": 43544,
      "Status": "OK",
      "Id": "7869",
      "CodeCity": "1066",
      "City": "בני עי\"ש",
      "CodeAddr": "117",
      "Addr": "האיריסים",
      "Tbl": "טבלת רחובות"
    },
    {
      "GoogleApiUrl": "http://maps.googleapis.com/maps/api/geocode/json?address=האלה,+בני עי\"ש,+ישראל&sensor=true_or_false",
      "Lat": 31.790016,
      "Lng": 34.755827,
      "Desc": null,
      "UId": 43546,
      "Status": "OK",
      "Id": "7870",
      "CodeCity": "1066",
      "City": "בני עי\"ש",
      "CodeAddr": "125",
      "Addr": "האלה",
      "Tbl": "טבלת רחובות"
    },
    {
      "GoogleApiUrl": "http://maps.googleapis.com/maps/api/geocode/json?address=האלון,+בני עי\"ש,+ישראל&sensor=true_or_false",
      "Lat": 31.790136,
      "Lng": 34.7551983,
      "Desc": null,
      "UId": 43547,
      "Status": "OK",
      "Id": "7871",
      "CodeCity": "1066",
      "City": "בני עי\"ש",
      "CodeAddr": "124",
      "Addr": "האלון",
      "Tbl": "טבלת רחובות"
    },
    {
      "GoogleApiUrl": "http://maps.googleapis.com/maps/api/geocode/json?address=הגפן,+בני עי\"ש,+ישראל&sensor=true_or_false",
      "Lat": 31.7908403,
      "Lng": 34.7624173,
      "Desc": null,
      "UId": 43548,
      "Status": "OK",
      "Id": "7872",
      "CodeCity": "1066",
      "City": "בני עי\"ש",
      "CodeAddr": "139",
      "Addr": "הגפן",
      "Tbl": "טבלת רחובות"
    },
    {
      "GoogleApiUrl": "http://maps.googleapis.com/maps/api/geocode/json?address=הדס,+בני עי\"ש,+ישראל&sensor=true_or_false",
      "Lat": 31.787114,
      "Lng": 34.759952,
      "Desc": null,
      "UId": 43549,
      "Status": "OK",
      "Id": "7873",
      "CodeCity": "1066",
      "City": "בני עי\"ש",
      "CodeAddr": "136",
      "Addr": "הדס",
      "Tbl": "טבלת רחובות"
    },
    {
      "GoogleApiUrl": "http://maps.googleapis.com/maps/api/geocode/json?address=הדקל,+בני עי\"ש,+ישראל&sensor=true_or_false",
      "Lat": 31.789855,
      "Lng": 34.756471,
      "Desc": null,
      "UId": 43550,
      "Status": "OK",
      "Id": "7874",
      "CodeCity": "1066",
      "City": "בני עי\"ש",
      "CodeAddr": "112",
      "Addr": "הדקל",
      "Tbl": "טבלת רחובות"
    },
    {
      "GoogleApiUrl": "http://maps.googleapis.com/maps/api/geocode/json?address=הורד,+בני עי\"ש,+ישראל&sensor=true_or_false",
      "Lat": 31.789418,
      "Lng": 34.758371,
      "Desc": null,
      "UId": 43551,
      "Status": "OK",
      "Id": "7875",
      "CodeCity": "1066",
      "City": "בני עי\"ש",
      "CodeAddr": "115",
      "Addr": "הורד",
      "Tbl": "טבלת רחובות"
    },
    {
      "GoogleApiUrl": "http://maps.googleapis.com/maps/api/geocode/json?address=הזית,+בני עי\"ש,+ישראל&sensor=true_or_false",
      "Lat": 31.790533,
      "Lng": 34.761724000000008,
      "Desc": null,
      "UId": 43552,
      "Status": "OK",
      "Id": "7876",
      "CodeCity": "1066",
      "City": "בני עי\"ש",
      "CodeAddr": "140",
      "Addr": "הזית",
      "Tbl": "טבלת רחובות"
    },
    {
      "GoogleApiUrl": "http://maps.googleapis.com/maps/api/geocode/json?address=החיטה,+בני עי\"ש,+ישראל&sensor=true_or_false",
      "Lat": 31.78515389999999,
      "Lng": 34.7625683,
      "Desc": null,
      "UId": 43553,
      "Status": "OK",
      "Id": "7877",
      "CodeCity": "1066",
      "City": "בני עי\"ש",
      "CodeAddr": "134",
      "Addr": "החיטה",
      "Tbl": "טבלת רחובות"
    },
    {
      "GoogleApiUrl": "http://maps.googleapis.com/maps/api/geocode/json?address=החצב,+בני עי\"ש,+ישראל&sensor=true_or_false",
      "Lat": 31.789556,
      "Lng": 34.7577634,
      "Desc": null,
      "UId": 43554,
      "Status": "OK",
      "Id": "7878",
      "CodeCity": "1066",
      "City": "בני עי\"ש",
      "CodeAddr": "114",
      "Addr": "החצב",
      "Tbl": "טבלת רחובות"
    },
    {
      "GoogleApiUrl": "http://maps.googleapis.com/maps/api/geocode/json?address=הכהנים,+בני עי\"ש,+ישראל&sensor=true_or_false",
      "Lat": 31.7913426,
      "Lng": 34.7609782,
      "Desc": null,
      "UId": 43555,
      "Status": "OK",
      "Id": "7879",
      "CodeCity": "1066",
      "City": "בני עי\"ש",
      "CodeAddr": "121",
      "Addr": "הכהנים",
      "Tbl": "טבלת רחובות"
    },
    {
      "GoogleApiUrl": "http://maps.googleapis.com/maps/api/geocode/json?address=הכלניות,+בני עי\"ש,+ישראל&sensor=true_or_false",
      "Lat": 31.789976,
      "Lng": 34.761734,
      "Desc": null,
      "UId": 43557,
      "Status": "OK",
      "Id": "7880",
      "CodeCity": "1066",
      "City": "בני עי\"ש",
      "CodeAddr": "102",
      "Addr": "הכלניות",
      "Tbl": "טבלת רחובות"
    },
    {
      "GoogleApiUrl": "http://maps.googleapis.com/maps/api/geocode/json?address=העליה,+בני עי\"ש,+ישראל&sensor=true_or_false",
      "Lat": 31.817379,
      "Lng": 34.773912,
      "Desc": null,
      "UId": 43558,
      "Status": "OK",
      "Id": "7881",
      "CodeCity": "1066",
      "City": "בני עי\"ש",
      "CodeAddr": "107",
      "Addr": "העליה",
      "Tbl": "טבלת רחובות"
    },
    {
      "GoogleApiUrl": "http://maps.googleapis.com/maps/api/geocode/json?address=הצלף,+בני עי\"ש,+ישראל&sensor=true_or_false",
      "Lat": 31.790235,
      "Lng": 34.759291,
      "Desc": null,
      "UId": 43559,
      "Status": "OK",
      "Id": "7882",
      "CodeCity": "1066",
      "City": "בני עי\"ש",
      "CodeAddr": "126",
      "Addr": "הצלף",
      "Tbl": "טבלת רחובות"
    },
    {
      "GoogleApiUrl": "http://maps.googleapis.com/maps/api/geocode/json?address=הרב אהרון דנין,+בני עי\"ש,+ישראל&sensor=true_or_false",
      "Lat": 31.787656,
      "Lng": 34.761244,
      "Desc": null,
      "UId": 43560,
      "Status": "OK",
      "Id": "7883",
      "CodeCity": "1066",
      "City": "בני עי\"ש",
      "CodeAddr": "129",
      "Addr": "הרב אהרון דנין",
      "Tbl": "טבלת רחובות"
    },
    {
      "GoogleApiUrl": "http://maps.googleapis.com/maps/api/geocode/json?address=הרב יחיא אלקשמה,+בני עי\"ש,+ישראל&sensor=true_or_false",
      "Lat": 31.7933957,
      "Lng": 34.7620314,
      "Desc": null,
      "UId": 43561,
      "Status": "OK",
      "Id": "7884",
      "CodeCity": "1066",
      "City": "בני עי\"ש",
      "CodeAddr": "118",
      "Addr": "הרב יחיא אלקשמה",
      "Tbl": "טבלת רחובות"
    },
    {
      "GoogleApiUrl": "http://maps.googleapis.com/maps/api/geocode/json?address=הרימון,+בני עי\"ש,+ישראל&sensor=true_or_false",
      "Lat": 31.7915406,
      "Lng": 34.7617318,
      "Desc": null,
      "UId": 43562,
      "Status": "OK",
      "Id": "7885",
      "CodeCity": "1066",
      "City": "בני עי\"ש",
      "CodeAddr": "122",
      "Addr": "הרימון",
      "Tbl": "טבלת רחובות"
    },
    {
      "GoogleApiUrl": "http://maps.googleapis.com/maps/api/geocode/json?address=הרקפת,+בני עי\"ש,+ישראל&sensor=true_or_false",
      "Lat": 31.78928,
      "Lng": 34.758992,
      "Desc": null,
      "UId": 43563,
      "Status": "OK",
      "Id": "7886",
      "CodeCity": "1066",
      "City": "בני עי\"ש",
      "CodeAddr": "116",
      "Addr": "הרקפת",
      "Tbl": "טבלת רחובות"
    },
    {
      "GoogleApiUrl": "http://maps.googleapis.com/maps/api/geocode/json?address=השעורה,+בני עי\"ש,+ישראל&sensor=true_or_false",
      "Lat": 31.7843552,
      "Lng": 34.7621754,
      "Desc": null,
      "UId": 43564,
      "Status": "OK",
      "Id": "7887",
      "CodeCity": "1066",
      "City": "בני עי\"ש",
      "CodeAddr": "133",
      "Addr": "השעורה",
      "Tbl": "טבלת רחובות"
    },
    {
      "GoogleApiUrl": "http://maps.googleapis.com/maps/api/geocode/json?address=השקד,+בני עי\"ש,+ישראל&sensor=true_or_false",
      "Lat": 31.792233,
      "Lng": 34.76261,
      "Desc": null,
      "UId": 43565,
      "Status": "OK",
      "Id": "7888",
      "CodeCity": "1066",
      "City": "בני עי\"ש",
      "CodeAddr": "128",
      "Addr": "השקד",
      "Tbl": "טבלת רחובות"
    },
    {
      "GoogleApiUrl": "http://maps.googleapis.com/maps/api/geocode/json?address=השקמה,+בני עי\"ש,+ישראל&sensor=true_or_false",
      "Lat": 31.787303,
      "Lng": 34.7622485,
      "Desc": null,
      "UId": 43566,
      "Status": "OK",
      "Id": "7889",
      "CodeCity": "1066",
      "City": "בני עי\"ש",
      "CodeAddr": "135",
      "Addr": "השקמה",
      "Tbl": "טבלת רחובות"
    },
    {
      "GoogleApiUrl": "http://maps.googleapis.com/maps/api/geocode/json?address=התאנה,+בני עי\"ש,+ישראל&sensor=true_or_false",
      "Lat": 31.792776,
      "Lng": 34.761785,
      "Desc": null,
      "UId": 43568,
      "Status": "OK",
      "Id": "7890",
      "CodeCity": "1066",
      "City": "בני עי\"ש",
      "CodeAddr": "137",
      "Addr": "התאנה",
      "Tbl": "טבלת רחובות"
    },
    {
      "GoogleApiUrl": "http://maps.googleapis.com/maps/api/geocode/json?address=התפוח,+בני עי\"ש,+ישראל&sensor=true_or_false",
      "Lat": 31.7915164,
      "Lng": 34.7609864,
      "Desc": null,
      "UId": 43569,
      "Status": "OK",
      "Id": "7891",
      "CodeCity": "1066",
      "City": "בני עי\"ש",
      "CodeAddr": "120",
      "Addr": "התפוח",
      "Tbl": "טבלת רחובות"
    },
    {
      "GoogleApiUrl": "http://maps.googleapis.com/maps/api/geocode/json?address=זנדני משה,+בני עי\"ש,+ישראל&sensor=true_or_false",
      "Lat": 31.7861702,
      "Lng": 34.7630394,
      "Desc": null,
      "UId": 43570,
      "Status": "OK",
      "Id": "7892",
      "CodeCity": "1066",
      "City": "בני עי\"ש",
      "CodeAddr": "130",
      "Addr": "זנדני משה",
      "Tbl": "טבלת רחובות"
    },
    {
      "GoogleApiUrl": "http://maps.googleapis.com/maps/api/geocode/json?address=לילך,+בני עי\"ש,+ישראל&sensor=true_or_false",
      "Lat": 31.8327527,
      "Lng": 34.7592068,
      "Desc": null,
      "UId": 43571,
      "Status": "OK",
      "Id": "7893",
      "CodeCity": "1066",
      "City": "בני עי\"ש",
      "CodeAddr": "104",
      "Addr": "לילך",
      "Tbl": "טבלת רחובות"
    },
    {
      "GoogleApiUrl": "http://maps.googleapis.com/maps/api/geocode/json?address=נאות דליה,+בני עי\"ש,+ישראל&sensor=true_or_false",
      "Lat": 31.790235,
      "Lng": 34.759291,
      "Desc": null,
      "UId": 43572,
      "Status": "OK",
      "Id": "7894",
      "CodeCity": "1066",
      "City": "בני עי\"ש",
      "CodeAddr": "6501",
      "Addr": "נאות דליה",
      "Tbl": "טבלת רחובות"
    },
    {
      "GoogleApiUrl": "http://maps.googleapis.com/maps/api/geocode/json?address=נווה אורנים,+בני עי\"ש,+ישראל&sensor=true_or_false",
      "Lat": 31.790235,
      "Lng": 34.759291,
      "Desc": null,
      "UId": 43573,
      "Status": "OK",
      "Id": "7895",
      "CodeCity": "1066",
      "City": "בני עי\"ש",
      "CodeAddr": "6504",
      "Addr": "נווה אורנים",
      "Tbl": "טבלת רחובות"
    },
    {
      "GoogleApiUrl": "http://maps.googleapis.com/maps/api/geocode/json?address=סמ בגין,+בני עי\"ש,+ישראל&sensor=true_or_false",
      "Lat": 31.790235,
      "Lng": 34.759291,
      "Desc": null,
      "UId": 43574,
      "Status": "OK",
      "Id": "7896",
      "CodeCity": "1066",
      "City": "בני עי\"ש",
      "CodeAddr": "141",
      "Addr": "סמ בגין",
      "Tbl": "טבלת רחובות"
    },
    {
      "GoogleApiUrl": "http://maps.googleapis.com/maps/api/geocode/json?address=סמ דגן,+בני עי\"ש,+ישראל&sensor=true_or_false",
      "Lat": 31.790235,
      "Lng": 34.759291,
      "Desc": null,
      "UId": 43575,
      "Status": "OK",
      "Id": "7897",
      "CodeCity": "1066",
      "City": "בני עי\"ש",
      "CodeAddr": "145",
      "Addr": "סמ דגן",
      "Tbl": "טבלת רחובות"
    },
    {
      "GoogleApiUrl": "http://maps.googleapis.com/maps/api/geocode/json?address=סמ זנדני,+בני עי\"ש,+ישראל&sensor=true_or_false",
      "Lat": 31.790235,
      "Lng": 34.759291,
      "Desc": null,
      "UId": 43576,
      "Status": "OK",
      "Id": "7898",
      "CodeCity": "1066",
      "City": "בני עי\"ש",
      "CodeAddr": "131",
      "Addr": "סמ זנדני",
      "Tbl": "טבלת רחובות"
    },
    {
      "GoogleApiUrl": "http://maps.googleapis.com/maps/api/geocode/json?address=סמ סיגלית,+בני עי\"ש,+ישראל&sensor=true_or_false",
      "Lat": 31.790235,
      "Lng": 34.759291,
      "Desc": null,
      "UId": 43577,
      "Status": "OK",
      "Id": "7899",
      "CodeCity": "1066",
      "City": "בני עי\"ש",
      "CodeAddr": "119",
      "Addr": "סמ סיגלית",
      "Tbl": "טבלת רחובות"
    },
    {
      "GoogleApiUrl": "http://maps.googleapis.com/maps/api/geocode/json?address=סמ קוסמת,+בני עי\"ש,+ישראל&sensor=true_or_false",
      "Lat": 31.790235,
      "Lng": 34.759291,
      "Desc": null,
      "UId": 43580,
      "Status": "OK",
      "Id": "7900",
      "CodeCity": "1066",
      "City": "בני עי\"ש",
      "CodeAddr": "142",
      "Addr": "סמ קוסמת",
      "Tbl": "טבלת רחובות"
    },
    {
      "GoogleApiUrl": "http://maps.googleapis.com/maps/api/geocode/json?address=סמ שיבולת,+בני עי\"ש,+ישראל&sensor=true_or_false",
      "Lat": 31.790235,
      "Lng": 34.759291,
      "Desc": null,
      "UId": 43581,
      "Status": "OK",
      "Id": "7901",
      "CodeCity": "1066",
      "City": "בני עי\"ש",
      "CodeAddr": "144",
      "Addr": "סמ שיבולת",
      "Tbl": "טבלת רחובות"
    },
    {
      "GoogleApiUrl": "http://maps.googleapis.com/maps/api/geocode/json?address=סמ שיפון,+בני עי\"ש,+ישראל&sensor=true_or_false",
      "Lat": 31.790235,
      "Lng": 34.759291,
      "Desc": null,
      "UId": 43582,
      "Status": "OK",
      "Id": "7902",
      "CodeCity": "1066",
      "City": "בני עי\"ש",
      "CodeAddr": "143",
      "Addr": "סמ שיפון",
      "Tbl": "טבלת רחובות"
    },
    {
      "GoogleApiUrl": "http://maps.googleapis.com/maps/api/geocode/json?address=סמ תבואה,+בני עי\"ש,+ישראל&sensor=true_or_false",
      "Lat": 31.790235,
      "Lng": 34.759291,
      "Desc": null,
      "UId": 43583,
      "Status": "OK",
      "Id": "7903",
      "CodeCity": "1066",
      "City": "בני עי\"ש",
      "CodeAddr": "146",
      "Addr": "סמ תבואה",
      "Tbl": "טבלת רחובות"
    },
    {
      "GoogleApiUrl": "http://maps.googleapis.com/maps/api/geocode/json?address=סמ תמר,+בני עי\"ש,+ישראל&sensor=true_or_false",
      "Lat": 31.794078,
      "Lng": 34.762235,
      "Desc": null,
      "UId": 43584,
      "Status": "OK",
      "Id": "7904",
      "CodeCity": "1066",
      "City": "בני עי\"ש",
      "CodeAddr": "103",
      "Addr": "סמ תמר",
      "Tbl": "טבלת רחובות"
    },
    {
      "GoogleApiUrl": "http://maps.googleapis.com/maps/api/geocode/json?address=ערבי נחל,+בני עי\"ש,+ישראל&sensor=true_or_false",
      "Lat": 31.787071,
      "Lng": 34.760475,
      "Desc": null,
      "UId": 43585,
      "Status": "OK",
      "Id": "7905",
      "CodeCity": "1066",
      "City": "בני עי\"ש",
      "CodeAddr": "132",
      "Addr": "ערבי נחל",
      "Tbl": "טבלת רחובות"
    },
    {
      "GoogleApiUrl": "http://maps.googleapis.com/maps/api/geocode/json?address=פנינת טל,+בני עי\"ש,+ישראל&sensor=true_or_false",
      "Lat": 31.790235,
      "Lng": 34.759291,
      "Desc": null,
      "UId": 43586,
      "Status": "OK",
      "Id": "7906",
      "CodeCity": "1066",
      "City": "בני עי\"ש",
      "CodeAddr": "6503",
      "Addr": "פנינת טל",
      "Tbl": "טבלת רחובות"
    },
    {
      "GoogleApiUrl": "http://maps.googleapis.com/maps/api/geocode/json?address=צאלה,+בני עי\"ש,+ישראל&sensor=true_or_false",
      "Lat": 31.8020847,
      "Lng": 34.7863305,
      "Desc": null,
      "UId": 43587,
      "Status": "OK",
      "Id": "7907",
      "CodeCity": "1066",
      "City": "בני עי\"ש",
      "CodeAddr": "105",
      "Addr": "צאלה",
      "Tbl": "טבלת רחובות"
    },
    {
      "GoogleApiUrl": "http://maps.googleapis.com/maps/api/geocode/json?address=רבין יצחק,+בני עי\"ש,+ישראל&sensor=true_or_false",
      "Lat": 31.79078,
      "Lng": 34.7574109,
      "Desc": null,
      "UId": 43588,
      "Status": "OK",
      "Id": "7908",
      "CodeCity": "1066",
      "City": "בני עי\"ש",
      "CodeAddr": "113",
      "Addr": "רבין יצחק",
      "Tbl": "טבלת רחובות"
    },
    {
      "GoogleApiUrl": "http://maps.googleapis.com/maps/api/geocode/json?address=תמר,+בני עי\"ש,+ישראל&sensor=true_or_false",
      "Lat": 31.794078,
      "Lng": 34.762235,
      "Desc": null,
      "UId": 43589,
      "Status": "OK",
      "Id": "7909",
      "CodeCity": "1066",
      "City": "בני עי\"ש",
      "CodeAddr": "138",
      "Addr": "תמר",
      "Tbl": "טבלת רחובות"
    },
    {
      "GoogleApiUrl": "http://maps.googleapis.com/maps/api/geocode/json?address=אגוז,+בני ציון,+ישראל&sensor=true_or_false",
      "Lat": 32.2137671,
      "Lng": 34.8671731,
      "Desc": null,
      "UId": 43591,
      "Status": "OK",
      "Id": "7910",
      "CodeCity": "418",
      "City": "בני ציון",
      "CodeAddr": "118",
      "Addr": "אגוז",
      "Tbl": "טבלת רחובות"
    },
    {
      "GoogleApiUrl": "http://maps.googleapis.com/maps/api/geocode/json?address=אנשי בראשית,+בני ציון,+ישראל&sensor=true_or_false",
      "Lat": 32.2224184,
      "Lng": 34.8708741,
      "Desc": null,
      "UId": 43592,
      "Status": "OK",
      "Id": "7911",
      "CodeCity": "418",
      "City": "בני ציון",
      "CodeAddr": "126",
      "Addr": "אנשי בראשית",
      "Tbl": "טבלת רחובות"
    },
    {
      "GoogleApiUrl": "http://maps.googleapis.com/maps/api/geocode/json?address=בני ציון,+בני ציון,+ישראל&sensor=true_or_false",
      "Lat": 32.222518,
      "Lng": 34.867408,
      "Desc": null,
      "UId": 43593,
      "Status": "OK",
      "Id": "7912",
      "CodeCity": "418",
      "City": "בני ציון",
      "CodeAddr": "9000",
      "Addr": "בני ציון",
      "Tbl": "טבלת רחובות"
    },
    {
      "GoogleApiUrl": "http://maps.googleapis.com/maps/api/geocode/json?address=דרך השדות,+בני ציון,+ישראל&sensor=true_or_false",
      "Lat": 32.2202451,
      "Lng": 34.8613259,
      "Desc": null,
      "UId": 43594,
      "Status": "OK",
      "Id": "7913",
      "CodeCity": "418",
      "City": "בני ציון",
      "CodeAddr": "124",
      "Addr": "דרך השדות",
      "Tbl": "טבלת רחובות"
    },
    {
      "GoogleApiUrl": "http://maps.googleapis.com/maps/api/geocode/json?address=הלימון,+בני ציון,+ישראל&sensor=true_or_false",
      "Lat": 32.2162668,
      "Lng": 34.8727567,
      "Desc": null,
      "UId": 43596,
      "Status": "OK",
      "Id": "7915",
      "CodeCity": "418",
      "City": "בני ציון",
      "CodeAddr": "116",
      "Addr": "הלימון",
      "Tbl": "טבלת רחובות"
    },
    {
      "GoogleApiUrl": "http://maps.googleapis.com/maps/api/geocode/json?address=המחרשה,+בני ציון,+ישראל&sensor=true_or_false",
      "Lat": 32.215353,
      "Lng": 34.8681856,
      "Desc": null,
      "UId": 43597,
      "Status": "OK",
      "Id": "7916",
      "CodeCity": "418",
      "City": "בני ציון",
      "CodeAddr": "120",
      "Addr": "המחרשה",
      "Tbl": "טבלת רחובות"
    },
    {
      "GoogleApiUrl": "http://maps.googleapis.com/maps/api/geocode/json?address=המנים,+בני ציון,+ישראל&sensor=true_or_false",
      "Lat": 32.2185193,
      "Lng": 34.8684061,
      "Desc": null,
      "UId": 43598,
      "Status": "OK",
      "Id": "7917",
      "CodeCity": "418",
      "City": "בני ציון",
      "CodeAddr": "103",
      "Addr": "המנים",
      "Tbl": "טבלת רחובות"
    },
    {
      "GoogleApiUrl": "http://maps.googleapis.com/maps/api/geocode/json?address=הנחל,+בני ציון,+ישראל&sensor=true_or_false",
      "Lat": 32.223141,
      "Lng": 34.874346,
      "Desc": null,
      "UId": 43599,
      "Status": "OK",
      "Id": "7918",
      "CodeCity": "418",
      "City": "בני ציון",
      "CodeAddr": "102",
      "Addr": "הנחל",
      "Tbl": "טבלת רחובות"
    },
    {
      "GoogleApiUrl": "http://maps.googleapis.com/maps/api/geocode/json?address=התלתן,+בני ציון,+ישראל&sensor=true_or_false",
      "Lat": 32.2159545,
      "Lng": 34.8683033,
      "Desc": null,
      "UId": 43600,
      "Status": "OK",
      "Id": "7919",
      "CodeCity": "418",
      "City": "בני ציון",
      "CodeAddr": "112",
      "Addr": "התלתן",
      "Tbl": "טבלת רחובות"
    },
    {
      "GoogleApiUrl": "http://maps.googleapis.com/maps/api/geocode/json?address=חורשת האורנים,+בני ציון,+ישראל&sensor=true_or_false",
      "Lat": 32.2201076,
      "Lng": 34.8724336,
      "Desc": null,
      "UId": 43602,
      "Status": "OK",
      "Id": "7920",
      "CodeCity": "418",
      "City": "בני ציון",
      "CodeAddr": "121",
      "Addr": "חורשת האורנים",
      "Tbl": "טבלת רחובות"
    },
    {
      "GoogleApiUrl": "http://maps.googleapis.com/maps/api/geocode/json?address=חורשת האקליפטוס,+בני ציון,+ישראל&sensor=true_or_false",
      "Lat": 32.221451000000009,
      "Lng": 34.8650224,
      "Desc": null,
      "UId": 43603,
      "Status": "OK",
      "Id": "7921",
      "CodeCity": "418",
      "City": "בני ציון",
      "CodeAddr": "122",
      "Addr": "חורשת האקליפטוס",
      "Tbl": "טבלת רחובות"
    },
    {
      "GoogleApiUrl": "http://maps.googleapis.com/maps/api/geocode/json?address=חמציץ,+בני ציון,+ישראל&sensor=true_or_false",
      "Lat": 32.2176116,
      "Lng": 34.8624488,
      "Desc": null,
      "UId": 43604,
      "Status": "OK",
      "Id": "7922",
      "CodeCity": "418",
      "City": "בני ציון",
      "CodeAddr": "107",
      "Addr": "חמציץ",
      "Tbl": "טבלת רחובות"
    },
    {
      "GoogleApiUrl": "http://maps.googleapis.com/maps/api/geocode/json?address=חצב,+בני ציון,+ישראל&sensor=true_or_false",
      "Lat": 32.2170694,
      "Lng": 34.8624758,
      "Desc": null,
      "UId": 43605,
      "Status": "OK",
      "Id": "7923",
      "CodeCity": "418",
      "City": "בני ציון",
      "CodeAddr": "108",
      "Addr": "חצב",
      "Tbl": "טבלת רחובות"
    },
    {
      "GoogleApiUrl": "http://maps.googleapis.com/maps/api/geocode/json?address=חרמש,+בני ציון,+ישראל&sensor=true_or_false",
      "Lat": 32.2152541,
      "Lng": 34.862257700000008,
      "Desc": null,
      "UId": 43606,
      "Status": "OK",
      "Id": "7924",
      "CodeCity": "418",
      "City": "בני ציון",
      "CodeAddr": "119",
      "Addr": "חרמש",
      "Tbl": "טבלת רחובות"
    },
    {
      "GoogleApiUrl": "http://maps.googleapis.com/maps/api/geocode/json?address=חרצית,+בני ציון,+ישראל&sensor=true_or_false",
      "Lat": 32.2156945,
      "Lng": 34.8682828,
      "Desc": null,
      "UId": 43607,
      "Status": "OK",
      "Id": "7925",
      "CodeCity": "418",
      "City": "בני ציון",
      "CodeAddr": "111",
      "Addr": "חרצית",
      "Tbl": "טבלת רחובות"
    },
    {
      "GoogleApiUrl": "http://maps.googleapis.com/maps/api/geocode/json?address=לוטם,+בני ציון,+ישראל&sensor=true_or_false",
      "Lat": 32.218109,
      "Lng": 34.862382,
      "Desc": null,
      "UId": 43609,
      "Status": "OK",
      "Id": "7927",
      "CodeCity": "418",
      "City": "בני ציון",
      "CodeAddr": "128",
      "Addr": "לוטם",
      "Tbl": "טבלת רחובות"
    },
    {
      "GoogleApiUrl": "http://maps.googleapis.com/maps/api/geocode/json?address=מגל,+בני ציון,+ישראל&sensor=true_or_false",
      "Lat": 32.2176673,
      "Lng": 34.8631353,
      "Desc": null,
      "UId": 43610,
      "Status": "OK",
      "Id": "7928",
      "CodeCity": "418",
      "City": "בני ציון",
      "CodeAddr": "104",
      "Addr": "מגל",
      "Tbl": "טבלת רחובות"
    },
    {
      "GoogleApiUrl": "http://maps.googleapis.com/maps/api/geocode/json?address=מרווה,+בני ציון,+ישראל&sensor=true_or_false",
      "Lat": 32.2160794,
      "Lng": 34.8719224,
      "Desc": null,
      "UId": 43611,
      "Status": "OK",
      "Id": "7929",
      "CodeCity": "418",
      "City": "בני ציון",
      "CodeAddr": "117",
      "Addr": "מרווה",
      "Tbl": "טבלת רחובות"
    },
    {
      "GoogleApiUrl": "http://maps.googleapis.com/maps/api/geocode/json?address=נענע,+בני ציון,+ישראל&sensor=true_or_false",
      "Lat": 32.2163427,
      "Lng": 34.865348,
      "Desc": null,
      "UId": 43613,
      "Status": "OK",
      "Id": "7930",
      "CodeCity": "418",
      "City": "בני ציון",
      "CodeAddr": "109",
      "Addr": "נענע",
      "Tbl": "טבלת רחובות"
    },
    {
      "GoogleApiUrl": "http://maps.googleapis.com/maps/api/geocode/json?address=סחלב,+בני ציון,+ישראל&sensor=true_or_false",
      "Lat": 32.2157403,
      "Lng": 34.8702533,
      "Desc": null,
      "UId": 43614,
      "Status": "OK",
      "Id": "7931",
      "CodeCity": "418",
      "City": "בני ציון",
      "CodeAddr": "114",
      "Addr": "סחלב",
      "Tbl": "טבלת רחובות"
    },
    {
      "GoogleApiUrl": "http://maps.googleapis.com/maps/api/geocode/json?address=סייפן,+בני ציון,+ישראל&sensor=true_or_false",
      "Lat": 32.2187028,
      "Lng": 34.8625226,
      "Desc": null,
      "UId": 43615,
      "Status": "OK",
      "Id": "7932",
      "CodeCity": "418",
      "City": "בני ציון",
      "CodeAddr": "105",
      "Addr": "סייפן",
      "Tbl": "טבלת רחובות"
    },
    {
      "GoogleApiUrl": "http://maps.googleapis.com/maps/api/geocode/json?address=פרג,+בני ציון,+ישראל&sensor=true_or_false",
      "Lat": 32.2156999,
      "Lng": 34.8709419,
      "Desc": null,
      "UId": 43616,
      "Status": "OK",
      "Id": "7933",
      "CodeCity": "418",
      "City": "בני ציון",
      "CodeAddr": "115",
      "Addr": "פרג",
      "Tbl": "טבלת רחובות"
    },
    {
      "GoogleApiUrl": "http://maps.googleapis.com/maps/api/geocode/json?address=צאלון,+בני ציון,+ישראל&sensor=true_or_false",
      "Lat": 32.2209526,
      "Lng": 34.8640015,
      "Desc": null,
      "UId": 43617,
      "Status": "OK",
      "Id": "7934",
      "CodeCity": "418",
      "City": "בני ציון",
      "CodeAddr": "127",
      "Addr": "צאלון",
      "Tbl": "טבלת רחובות"
    },
    {
      "GoogleApiUrl": "http://maps.googleapis.com/maps/api/geocode/json?address=קורנית,+בני ציון,+ישראל&sensor=true_or_false",
      "Lat": 32.2167767,
      "Lng": 34.866246,
      "Desc": null,
      "UId": 43618,
      "Status": "OK",
      "Id": "7935",
      "CodeCity": "418",
      "City": "בני ציון",
      "CodeAddr": "110",
      "Addr": "קורנית",
      "Tbl": "טבלת רחובות"
    },
    {
      "GoogleApiUrl": "http://maps.googleapis.com/maps/api/geocode/json?address=רימונים,+בני ציון,+ישראל&sensor=true_or_false",
      "Lat": 31.3409589,
      "Lng": 35.1009944,
      "Desc": null,
      "UId": 43619,
      "Status": "OK",
      "Id": "7936",
      "CodeCity": "418",
      "City": "בני ציון",
      "CodeAddr": "129",
      "Addr": "רימונים",
      "Tbl": "טבלת רחובות"
    },
    {
      "GoogleApiUrl": "http://maps.googleapis.com/maps/api/geocode/json?address=שביל קליפות התפוזים,+בני ציון,+ישראל&sensor=true_or_false",
      "Lat": 32.214864,
      "Lng": 34.8626412,
      "Desc": null,
      "UId": 43620,
      "Status": "OK",
      "Id": "7937",
      "CodeCity": "418",
      "City": "בני ציון",
      "CodeAddr": "123",
      "Addr": "שביל קליפות התפוזים",
      "Tbl": "טבלת רחובות"
    },
    {
      "GoogleApiUrl": "http://maps.googleapis.com/maps/api/geocode/json?address=שיזף,+בני ציון,+ישראל&sensor=true_or_false",
      "Lat": 32.2242473,
      "Lng": 34.868283,
      "Desc": null,
      "UId": 43621,
      "Status": "OK",
      "Id": "7938",
      "CodeCity": "418",
      "City": "בני ציון",
      "CodeAddr": "101",
      "Addr": "שיזף",
      "Tbl": "טבלת רחובות"
    },
    {
      "GoogleApiUrl": "http://maps.googleapis.com/maps/api/geocode/json?address=תורמוס,+בני ציון,+ישראל&sensor=true_or_false",
      "Lat": 32.2159223,
      "Lng": 34.8689278,
      "Desc": null,
      "UId": 43622,
      "Status": "OK",
      "Id": "7939",
      "CodeCity": "418",
      "City": "בני ציון",
      "CodeAddr": "113",
      "Addr": "תורמוס",
      "Tbl": "טבלת רחובות"
    },
    {
      "GoogleApiUrl": "http://maps.googleapis.com/maps/api/geocode/json?address=אורן,+בני ראם,+ישראל&sensor=true_or_false",
      "Lat": 31.774065,
      "Lng": 34.790209,
      "Desc": null,
      "UId": 43624,
      "Status": "OK",
      "Id": "7940",
      "CodeCity": "588",
      "City": "בני ראם",
      "CodeAddr": "101",
      "Addr": "אורן",
      "Tbl": "טבלת רחובות"
    },
    {
      "GoogleApiUrl": "http://maps.googleapis.com/maps/api/geocode/json?address=בני ראם,+בני ראם,+ישראל&sensor=true_or_false",
      "Lat": 31.7731433,
      "Lng": 34.7919924,
      "Desc": null,
      "UId": 43625,
      "Status": "OK",
      "Id": "7941",
      "CodeCity": "588",
      "City": "בני ראם",
      "CodeAddr": "9000",
      "Addr": "בני ראם",
      "Tbl": "טבלת רחובות"
    },
    {
      "GoogleApiUrl": "http://maps.googleapis.com/maps/api/geocode/json?address=האירוס,+בני ראם,+ישראל&sensor=true_or_false",
      "Lat": 31.773127,
      "Lng": 34.783156,
      "Desc": null,
      "UId": 43626,
      "Status": "OK",
      "Id": "7942",
      "CodeCity": "588",
      "City": "בני ראם",
      "CodeAddr": "103",
      "Addr": "האירוס",
      "Tbl": "טבלת רחובות"
    },
    {
      "GoogleApiUrl": "http://maps.googleapis.com/maps/api/geocode/json?address=הברוש,+בני ראם,+ישראל&sensor=true_or_false",
      "Lat": 31.773262,
      "Lng": 34.783825,
      "Desc": null,
      "UId": 43627,
      "Status": "OK",
      "Id": "7943",
      "CodeCity": "588",
      "City": "בני ראם",
      "CodeAddr": "104",
      "Addr": "הברוש",
      "Tbl": "טבלת רחובות"
    },
    {
      "GoogleApiUrl": "http://maps.googleapis.com/maps/api/geocode/json?address=הגפן,+בני ראם,+ישראל&sensor=true_or_false",
      "Lat": 31.773462,
      "Lng": 34.784985,
      "Desc": null,
      "UId": 43628,
      "Status": "OK",
      "Id": "7944",
      "CodeCity": "588",
      "City": "בני ראם",
      "CodeAddr": "105",
      "Addr": "הגפן",
      "Tbl": "טבלת רחובות"
    },
    {
      "GoogleApiUrl": "http://maps.googleapis.com/maps/api/geocode/json?address=הדקל,+בני ראם,+ישראל&sensor=true_or_false",
      "Lat": 31.774085,
      "Lng": 34.7854936,
      "Desc": null,
      "UId": 43629,
      "Status": "OK",
      "Id": "7945",
      "CodeCity": "588",
      "City": "בני ראם",
      "CodeAddr": "106",
      "Addr": "הדקל",
      "Tbl": "טבלת רחובות"
    },
    {
      "GoogleApiUrl": "http://maps.googleapis.com/maps/api/geocode/json?address=ההדס,+בני ראם,+ישראל&sensor=true_or_false",
      "Lat": 31.7697582,
      "Lng": 34.7874816,
      "Desc": null,
      "UId": 43630,
      "Status": "OK",
      "Id": "7946",
      "CodeCity": "588",
      "City": "בני ראם",
      "CodeAddr": "112",
      "Addr": "ההדס",
      "Tbl": "טבלת רחובות"
    },
    {
      "GoogleApiUrl": "http://maps.googleapis.com/maps/api/geocode/json?address=הורד,+בני ראם,+ישראל&sensor=true_or_false",
      "Lat": 31.77375,
      "Lng": 34.7872056,
      "Desc": null,
      "UId": 43631,
      "Status": "OK",
      "Id": "7947",
      "CodeCity": "588",
      "City": "בני ראם",
      "CodeAddr": "107",
      "Addr": "הורד",
      "Tbl": "טבלת רחובות"
    },
    {
      "GoogleApiUrl": "http://maps.googleapis.com/maps/api/geocode/json?address=הזית,+בני ראם,+ישראל&sensor=true_or_false",
      "Lat": 31.773772,
      "Lng": 34.787853,
      "Desc": null,
      "UId": 43632,
      "Status": "OK",
      "Id": "7948",
      "CodeCity": "588",
      "City": "בני ראם",
      "CodeAddr": "108",
      "Addr": "הזית",
      "Tbl": "טבלת רחובות"
    },
    {
      "GoogleApiUrl": "http://maps.googleapis.com/maps/api/geocode/json?address=החרוב,+בני ראם,+ישראל&sensor=true_or_false",
      "Lat": 31.773743,
      "Lng": 34.788493,
      "Desc": null,
      "UId": 43633,
      "Status": "OK",
      "Id": "7949",
      "CodeCity": "588",
      "City": "בני ראם",
      "CodeAddr": "109",
      "Addr": "החרוב",
      "Tbl": "טבלת רחובות"
    },
    {
      "GoogleApiUrl": "http://maps.googleapis.com/maps/api/geocode/json?address=הטופח,+בני ראם,+ישראל&sensor=true_or_false",
      "Lat": 31.7741766,
      "Lng": 34.7887865,
      "Desc": null,
      "UId": 43635,
      "Status": "OK",
      "Id": "7950",
      "CodeCity": "588",
      "City": "בני ראם",
      "CodeAddr": "102",
      "Addr": "הטופח",
      "Tbl": "טבלת רחובות"
    },
    {
      "GoogleApiUrl": "http://maps.googleapis.com/maps/api/geocode/json?address=היסמין,+בני ראם,+ישראל&sensor=true_or_false",
      "Lat": 31.773722,
      "Lng": 34.789483,
      "Desc": null,
      "UId": 43636,
      "Status": "OK",
      "Id": "7951",
      "CodeCity": "588",
      "City": "בני ראם",
      "CodeAddr": "110",
      "Addr": "היסמין",
      "Tbl": "טבלת רחובות"
    },
    {
      "GoogleApiUrl": "http://maps.googleapis.com/maps/api/geocode/json?address=הכלנית,+בני ראם,+ישראל&sensor=true_or_false",
      "Lat": 31.768619,
      "Lng": 34.79063,
      "Desc": null,
      "UId": 43637,
      "Status": "OK",
      "Id": "7952",
      "CodeCity": "588",
      "City": "בני ראם",
      "CodeAddr": "113",
      "Addr": "הכלנית",
      "Tbl": "טבלת רחובות"
    },
    {
      "GoogleApiUrl": "http://maps.googleapis.com/maps/api/geocode/json?address=הלילך,+בני ראם,+ישראל&sensor=true_or_false",
      "Lat": 31.7719476,
      "Lng": 34.7906261,
      "Desc": null,
      "UId": 43638,
      "Status": "OK",
      "Id": "7953",
      "CodeCity": "588",
      "City": "בני ראם",
      "CodeAddr": "111",
      "Addr": "הלילך",
      "Tbl": "טבלת רחובות"
    },
    {
      "GoogleApiUrl": "http://maps.googleapis.com/maps/api/geocode/json?address=הנורית,+בני ראם,+ישראל&sensor=true_or_false",
      "Lat": 31.7726511,
      "Lng": 34.7939324,
      "Desc": null,
      "UId": 43639,
      "Status": "OK",
      "Id": "7954",
      "CodeCity": "588",
      "City": "בני ראם",
      "CodeAddr": "117",
      "Addr": "הנורית",
      "Tbl": "טבלת רחובות"
    },
    {
      "GoogleApiUrl": "http://maps.googleapis.com/maps/api/geocode/json?address=הסיגלית,+בני ראם,+ישראל&sensor=true_or_false",
      "Lat": 31.772416,
      "Lng": 34.794631,
      "Desc": null,
      "UId": 43640,
      "Status": "OK",
      "Id": "7955",
      "CodeCity": "588",
      "City": "בני ראם",
      "CodeAddr": "118",
      "Addr": "הסיגלית",
      "Tbl": "טבלת רחובות"
    },
    {
      "GoogleApiUrl": "http://maps.googleapis.com/maps/api/geocode/json?address=העירית,+בני ראם,+ישראל&sensor=true_or_false",
      "Lat": 31.772151,
      "Lng": 34.7951498,
      "Desc": null,
      "UId": 43641,
      "Status": "OK",
      "Id": "7956",
      "CodeCity": "588",
      "City": "בני ראם",
      "CodeAddr": "119",
      "Addr": "העירית",
      "Tbl": "טבלת רחובות"
    },
    {
      "GoogleApiUrl": "http://maps.googleapis.com/maps/api/geocode/json?address=הפרג,+בני ראם,+ישראל&sensor=true_or_false",
      "Lat": 31.7718761,
      "Lng": 34.795642,
      "Desc": null,
      "UId": 43642,
      "Status": "OK",
      "Id": "7957",
      "CodeCity": "588",
      "City": "בני ראם",
      "CodeAddr": "120",
      "Addr": "הפרג",
      "Tbl": "טבלת רחובות"
    },
    {
      "GoogleApiUrl": "http://maps.googleapis.com/maps/api/geocode/json?address=הצאלון,+בני ראם,+ישראל&sensor=true_or_false",
      "Lat": 31.7715765,
      "Lng": 34.7961048,
      "Desc": null,
      "UId": 43643,
      "Status": "OK",
      "Id": "7958",
      "CodeCity": "588",
      "City": "בני ראם",
      "CodeAddr": "121",
      "Addr": "הצאלון",
      "Tbl": "טבלת רחובות"
    },
    {
      "GoogleApiUrl": "http://maps.googleapis.com/maps/api/geocode/json?address=הקורנית,+בני ראם,+ישראל&sensor=true_or_false",
      "Lat": 31.7716454,
      "Lng": 34.7969547,
      "Desc": null,
      "UId": 43644,
      "Status": "OK",
      "Id": "7959",
      "CodeCity": "588",
      "City": "בני ראם",
      "CodeAddr": "122",
      "Addr": "הקורנית",
      "Tbl": "טבלת רחובות"
    },
    {
      "GoogleApiUrl": "http://maps.googleapis.com/maps/api/geocode/json?address=הרקפת,+בני ראם,+ישראל&sensor=true_or_false",
      "Lat": 31.7681244,
      "Lng": 34.7937338,
      "Desc": null,
      "UId": 43646,
      "Status": "OK",
      "Id": "7960",
      "CodeCity": "588",
      "City": "בני ראם",
      "CodeAddr": "114",
      "Addr": "הרקפת",
      "Tbl": "טבלת רחובות"
    },
    {
      "GoogleApiUrl": "http://maps.googleapis.com/maps/api/geocode/json?address=השיטה,+בני ראם,+ישראל&sensor=true_or_false",
      "Lat": 31.77038129999999,
      "Lng": 34.7975418,
      "Desc": null,
      "UId": 43647,
      "Status": "OK",
      "Id": "7961",
      "CodeCity": "588",
      "City": "בני ראם",
      "CodeAddr": "123",
      "Addr": "השיטה",
      "Tbl": "טבלת רחובות"
    },
    {
      "GoogleApiUrl": "http://maps.googleapis.com/maps/api/geocode/json?address=כליל החורש,+בני ראם,+ישראל&sensor=true_or_false",
      "Lat": 31.7735752,
      "Lng": 34.7902076,
      "Desc": null,
      "UId": 43648,
      "Status": "OK",
      "Id": "7962",
      "CodeCity": "588",
      "City": "בני ראם",
      "CodeAddr": "116",
      "Addr": "כליל החורש",
      "Tbl": "טבלת רחובות"
    },
    {
      "GoogleApiUrl": "http://maps.googleapis.com/maps/api/geocode/json?address=מרווה,+בני ראם,+ישראל&sensor=true_or_false",
      "Lat": 31.7681609,
      "Lng": 34.7903818,
      "Desc": null,
      "UId": 43649,
      "Status": "OK",
      "Id": "7963",
      "CodeCity": "588",
      "City": "בני ראם",
      "CodeAddr": "115",
      "Addr": "מרווה",
      "Tbl": "טבלת רחובות"
    },
    {
      "GoogleApiUrl": "http://maps.googleapis.com/maps/api/geocode/json?address=בניה,+בניה,+ישראל&sensor=true_or_false",
      "Lat": 31.8440278,
      "Lng": 34.7522775,
      "Desc": null,
      "UId": 43650,
      "Status": "OK",
      "Id": "7964",
      "CodeCity": "685",
      "City": "בניה",
      "CodeAddr": "9000",
      "Addr": "בניה",
      "Tbl": "טבלת רחובות"
    },
    {
      "GoogleApiUrl": "http://maps.googleapis.com/maps/api/geocode/json?address=אדמונית החורש,+בנימינה-גבעת עדה,+ישראל&sensor=true_or_false",
      "Lat": 32.519139,
      "Lng": 34.952187,
      "Desc": null,
      "UId": 43651,
      "Status": "OK",
      "Id": "7965",
      "CodeCity": "9800",
      "City": "בנימינה-גבעת עדה",
      "CodeAddr": "246",
      "Addr": "אדמונית החורש",
      "Tbl": "טבלת רחובות"
    },
    {
      "GoogleApiUrl": "http://maps.googleapis.com/maps/api/geocode/json?address=אזור תעשיה רכבת,+בנימינה-גבעת עדה,+ישראל&sensor=true_or_false",
      "Lat": 32.517078,
      "Lng": 34.955096,
      "Desc": null,
      "UId": 43652,
      "Status": "OK",
      "Id": "7966",
      "CodeCity": "9800",
      "City": "בנימינה-גבעת עדה",
      "CodeAddr": "6518",
      "Addr": "אזור תעשיה רכבת",
      "Tbl": "טבלת רחובות"
    },
    {
      "GoogleApiUrl": "http://maps.googleapis.com/maps/api/geocode/json?address=בית האריזה,+בנימינה-גבעת עדה,+ישראל&sensor=true_or_false",
      "Lat": 32.517078,
      "Lng": 34.955096,
      "Desc": null,
      "UId": 43653,
      "Status": "OK",
      "Id": "7967",
      "CodeCity": "9800",
      "City": "בנימינה-גבעת עדה",
      "CodeAddr": "230",
      "Addr": "בית האריזה",
      "Tbl": "טבלת רחובות"
    },
    {
      "GoogleApiUrl": "http://maps.googleapis.com/maps/api/geocode/json?address=בנימינה,+בנימינה-גבעת עדה,+ישראל&sensor=true_or_false",
      "Lat": 32.520201,
      "Lng": 34.948786,
      "Desc": null,
      "UId": 43654,
      "Status": "OK",
      "Id": "7968",
      "CodeCity": "9800",
      "City": "בנימינה-גבעת עדה",
      "CodeAddr": "6514",
      "Addr": "בנימינה",
      "Tbl": "טבלת רחובות"
    },
    {
      "GoogleApiUrl": "http://maps.googleapis.com/maps/api/geocode/json?address=בנימינה-גבעת עדה,+בנימינה-גבעת עדה,+ישראל&sensor=true_or_false",
      "Lat": 32.520201,
      "Lng": 34.948786,
      "Desc": null,
      "UId": 43655,
      "Status": "OK",
      "Id": "7969",
      "CodeCity": "9800",
      "City": "בנימינה-גבעת עדה",
      "CodeAddr": "9000",
      "Addr": "בנימינה-גבעת עדה",
      "Tbl": "טבלת רחובות"
    },
    {
      "GoogleApiUrl": "http://maps.googleapis.com/maps/api/geocode/json?address=בריכת המים,+בנימינה-גבעת עדה,+ישראל&sensor=true_or_false",
      "Lat": 32.5196116,
      "Lng": 34.9455813,
      "Desc": null,
      "UId": 43657,
      "Status": "OK",
      "Id": "7970",
      "CodeCity": "9800",
      "City": "בנימינה-גבעת עדה",
      "CodeAddr": "185",
      "Addr": "בריכת המים",
      "Tbl": "טבלת רחובות"
    },
    {
      "GoogleApiUrl": "http://maps.googleapis.com/maps/api/geocode/json?address=גבעת עדה,+בנימינה-גבעת עדה,+ישראל&sensor=true_or_false",
      "Lat": 32.521082,
      "Lng": 35.009876,
      "Desc": null,
      "UId": 43658,
      "Status": "OK",
      "Id": "7971",
      "CodeCity": "9800",
      "City": "בנימינה-גבעת עדה",
      "CodeAddr": "6520",
      "Addr": "גבעת עדה",
      "Tbl": "טבלת רחובות"
    },
    {
      "GoogleApiUrl": "http://maps.googleapis.com/maps/api/geocode/json?address=גבעת עדה הרחבה,+בנימינה-גבעת עדה,+ישראל&sensor=true_or_false",
      "Lat": 31.3409589,
      "Lng": 35.1009944,
      "Desc": null,
      "UId": 43659,
      "Status": "OK",
      "Id": "7972",
      "CodeCity": "9800",
      "City": "בנימינה-גבעת עדה",
      "CodeAddr": "6526",
      "Addr": "גבעת עדה הרחבה",
      "Tbl": "טבלת רחובות"
    },
    {
      "GoogleApiUrl": "http://maps.googleapis.com/maps/api/geocode/json?address=גני בנימינה,+בנימינה-גבעת עדה,+ישראל&sensor=true_or_false",
      "Lat": 32.52571,
      "Lng": 34.939581,
      "Desc": null,
      "UId": 43660,
      "Status": "OK",
      "Id": "7973",
      "CodeCity": "9800",
      "City": "בנימינה-גבעת עדה",
      "CodeAddr": "6513",
      "Addr": "גני בנימינה",
      "Tbl": "טבלת רחובות"
    },
    {
      "GoogleApiUrl": "http://maps.googleapis.com/maps/api/geocode/json?address=דרך בנימינה ג\"ע,+בנימינה-גבעת עדה,+ישראל&sensor=true_or_false",
      "Lat": 32.517078,
      "Lng": 34.955096,
      "Desc": null,
      "UId": 43661,
      "Status": "OK",
      "Id": "7974",
      "CodeCity": "9800",
      "City": "בנימינה-גבעת עדה",
      "CodeAddr": "3165",
      "Addr": "דרך בנימינה ג\"ע",
      "Tbl": "טבלת רחובות"
    },
    {
      "GoogleApiUrl": "http://maps.googleapis.com/maps/api/geocode/json?address=דרך הברושים ג\"ע,+בנימינה-גבעת עדה,+ישראל&sensor=true_or_false",
      "Lat": 32.517078,
      "Lng": 34.955096,
      "Desc": null,
      "UId": 43662,
      "Status": "OK",
      "Id": "7975",
      "CodeCity": "9800",
      "City": "בנימינה-גבעת עדה",
      "CodeAddr": "3128",
      "Addr": "דרך הברושים ג\"ע",
      "Tbl": "טבלת רחובות"
    },
    {
      "GoogleApiUrl": "http://maps.googleapis.com/maps/api/geocode/json?address=דרך המסילה,+בנימינה-גבעת עדה,+ישראל&sensor=true_or_false",
      "Lat": 32.5173358,
      "Lng": 34.9494562,
      "Desc": null,
      "UId": 43663,
      "Status": "OK",
      "Id": "7976",
      "CodeCity": "9800",
      "City": "בנימינה-גבעת עדה",
      "CodeAddr": "151",
      "Addr": "דרך המסילה",
      "Tbl": "טבלת רחובות"
    },
    {
      "GoogleApiUrl": "http://maps.googleapis.com/maps/api/geocode/json?address=דרך העצמאות,+בנימינה-גבעת עדה,+ישראל&sensor=true_or_false",
      "Lat": 32.5224894,
      "Lng": 34.9373954,
      "Desc": null,
      "UId": 43664,
      "Status": "OK",
      "Id": "7977",
      "CodeCity": "9800",
      "City": "בנימינה-גבעת עדה",
      "CodeAddr": "123",
      "Addr": "דרך העצמאות",
      "Tbl": "טבלת רחובות"
    },
    {
      "GoogleApiUrl": "http://maps.googleapis.com/maps/api/geocode/json?address=דרך ניל\"י,+בנימינה-גבעת עדה,+ישראל&sensor=true_or_false",
      "Lat": 32.5216352,
      "Lng": 34.9426298,
      "Desc": null,
      "UId": 43665,
      "Status": "OK",
      "Id": "7978",
      "CodeCity": "9800",
      "City": "בנימינה-גבעת עדה",
      "CodeAddr": "155",
      "Addr": "דרך ניל\"י",
      "Tbl": "טבלת רחובות"
    },
    {
      "GoogleApiUrl": "http://maps.googleapis.com/maps/api/geocode/json?address=דרך פיק\"א,+בנימינה-גבעת עדה,+ישראל&sensor=true_or_false",
      "Lat": 32.5207785,
      "Lng": 34.9422141,
      "Desc": null,
      "UId": 43666,
      "Status": "OK",
      "Id": "7979",
      "CodeCity": "9800",
      "City": "בנימינה-גבעת עדה",
      "CodeAddr": "183",
      "Addr": "דרך פיק\"א",
      "Tbl": "טבלת רחובות"
    },
    {
      "GoogleApiUrl": "http://maps.googleapis.com/maps/api/geocode/json?address=דרך רגבים גבעת עדה,+בנימינה-גבעת עדה,+ישראל&sensor=true_or_false",
      "Lat": 32.5221981,
      "Lng": 35.0071573,
      "Desc": null,
      "UId": 43668,
      "Status": "OK",
      "Id": "7980",
      "CodeCity": "9800",
      "City": "בנימינה-גבעת עדה",
      "CodeAddr": "3103",
      "Addr": "דרך רגבים גבעת עדה",
      "Tbl": "טבלת רחובות"
    },
    {
      "GoogleApiUrl": "http://maps.googleapis.com/maps/api/geocode/json?address=האגוז,+בנימינה-גבעת עדה,+ישראל&sensor=true_or_false",
      "Lat": 32.5151833,
      "Lng": 34.951323599999988,
      "Desc": null,
      "UId": 43669,
      "Status": "OK",
      "Id": "7981",
      "CodeCity": "9800",
      "City": "בנימינה-גבעת עדה",
      "CodeAddr": "162",
      "Addr": "האגוז",
      "Tbl": "טבלת רחובות"
    },
    {
      "GoogleApiUrl": "http://maps.googleapis.com/maps/api/geocode/json?address=האגוז גבעת עדה,+בנימינה-גבעת עדה,+ישראל&sensor=true_or_false",
      "Lat": 32.5151833,
      "Lng": 34.951323599999988,
      "Desc": null,
      "UId": 43670,
      "Status": "OK",
      "Id": "7982",
      "CodeCity": "9800",
      "City": "בנימינה-גבעת עדה",
      "CodeAddr": "3118",
      "Addr": "האגוז גבעת עדה",
      "Tbl": "טבלת רחובות"
    },
    {
      "GoogleApiUrl": "http://maps.googleapis.com/maps/api/geocode/json?address=האגס גבעת עדה,+בנימינה-גבעת עדה,+ישראל&sensor=true_or_false",
      "Lat": 32.520709,
      "Lng": 35.007234,
      "Desc": null,
      "UId": 43671,
      "Status": "OK",
      "Id": "7983",
      "CodeCity": "9800",
      "City": "בנימינה-גבעת עדה",
      "CodeAddr": "3117",
      "Addr": "האגס גבעת עדה",
      "Tbl": "טבלת רחובות"
    },
    {
      "GoogleApiUrl": "http://maps.googleapis.com/maps/api/geocode/json?address=האגסים,+בנימינה-גבעת עדה,+ישראל&sensor=true_or_false",
      "Lat": 32.5186497,
      "Lng": 34.9558318,
      "Desc": null,
      "UId": 43672,
      "Status": "OK",
      "Id": "7984",
      "CodeCity": "9800",
      "City": "בנימינה-גבעת עדה",
      "CodeAddr": "163",
      "Addr": "האגסים",
      "Tbl": "טבלת רחובות"
    },
    {
      "GoogleApiUrl": "http://maps.googleapis.com/maps/api/geocode/json?address=האופק,+בנימינה-גבעת עדה,+ישראל&sensor=true_or_false",
      "Lat": 32.517078,
      "Lng": 34.955096,
      "Desc": null,
      "UId": 43673,
      "Status": "OK",
      "Id": "7985",
      "CodeCity": "9800",
      "City": "בנימינה-גבעת עדה",
      "CodeAddr": "178",
      "Addr": "האופק",
      "Tbl": "טבלת רחובות"
    },
    {
      "GoogleApiUrl": "http://maps.googleapis.com/maps/api/geocode/json?address=האורן,+בנימינה-גבעת עדה,+ישראל&sensor=true_or_false",
      "Lat": 32.5256545,
      "Lng": 34.9430459,
      "Desc": null,
      "UId": 43674,
      "Status": "OK",
      "Id": "7986",
      "CodeCity": "9800",
      "City": "בנימינה-גבעת עדה",
      "CodeAddr": "171",
      "Addr": "האורן",
      "Tbl": "טבלת רחובות"
    },
    {
      "GoogleApiUrl": "http://maps.googleapis.com/maps/api/geocode/json?address=האורנים גבעת עדה,+בנימינה-גבעת עדה,+ישראל&sensor=true_or_false",
      "Lat": 32.5215516,
      "Lng": 34.9966672,
      "Desc": null,
      "UId": 43675,
      "Status": "OK",
      "Id": "7987",
      "CodeCity": "9800",
      "City": "בנימינה-גבעת עדה",
      "CodeAddr": "3132",
      "Addr": "האורנים גבעת עדה",
      "Tbl": "טבלת רחובות"
    },
    {
      "GoogleApiUrl": "http://maps.googleapis.com/maps/api/geocode/json?address=האיכר,+בנימינה-גבעת עדה,+ישראל&sensor=true_or_false",
      "Lat": 32.5230457,
      "Lng": 34.9491957,
      "Desc": null,
      "UId": 43676,
      "Status": "OK",
      "Id": "7988",
      "CodeCity": "9800",
      "City": "בנימינה-גבעת עדה",
      "CodeAddr": "147",
      "Addr": "האיכר",
      "Tbl": "טבלת רחובות"
    },
    {
      "GoogleApiUrl": "http://maps.googleapis.com/maps/api/geocode/json?address=האירוס,+בנימינה-גבעת עדה,+ישראל&sensor=true_or_false",
      "Lat": 32.528343,
      "Lng": 34.936337,
      "Desc": null,
      "UId": 43677,
      "Status": "OK",
      "Id": "7989",
      "CodeCity": "9800",
      "City": "בנימינה-גבעת עדה",
      "CodeAddr": "175",
      "Addr": "האירוס",
      "Tbl": "טבלת רחובות"
    },
    {
      "GoogleApiUrl": "http://maps.googleapis.com/maps/api/geocode/json?address=האירית,+בנימינה-גבעת עדה,+ישראל&sensor=true_or_false",
      "Lat": 32.5211353,
      "Lng": 34.9368296,
      "Desc": null,
      "UId": 43679,
      "Status": "OK",
      "Id": "7990",
      "CodeCity": "9800",
      "City": "בנימינה-גבעת עדה",
      "CodeAddr": "161",
      "Addr": "האירית",
      "Tbl": "טבלת רחובות"
    },
    {
      "GoogleApiUrl": "http://maps.googleapis.com/maps/api/geocode/json?address=האלה גבעת עדה,+בנימינה-גבעת עדה,+ישראל&sensor=true_or_false",
      "Lat": 32.5168011,
      "Lng": 35.0080917,
      "Desc": null,
      "UId": 43680,
      "Status": "OK",
      "Id": "7991",
      "CodeCity": "9800",
      "City": "בנימינה-גבעת עדה",
      "CodeAddr": "3110",
      "Addr": "האלה גבעת עדה",
      "Tbl": "טבלת רחובות"
    },
    {
      "GoogleApiUrl": "http://maps.googleapis.com/maps/api/geocode/json?address=האלון,+בנימינה-גבעת עדה,+ישראל&sensor=true_or_false",
      "Lat": 32.5242509,
      "Lng": 34.9397278,
      "Desc": null,
      "UId": 43681,
      "Status": "OK",
      "Id": "7992",
      "CodeCity": "9800",
      "City": "בנימינה-גבעת עדה",
      "CodeAddr": "170",
      "Addr": "האלון",
      "Tbl": "טבלת רחובות"
    },
    {
      "GoogleApiUrl": "http://maps.googleapis.com/maps/api/geocode/json?address=האלון גבעת עדה,+בנימינה-גבעת עדה,+ישראל&sensor=true_or_false",
      "Lat": 32.5242509,
      "Lng": 34.9397278,
      "Desc": null,
      "UId": 43682,
      "Status": "OK",
      "Id": "7993",
      "CodeCity": "9800",
      "City": "בנימינה-גבעת עדה",
      "CodeAddr": "3114",
      "Addr": "האלון גבעת עדה",
      "Tbl": "טבלת רחובות"
    },
    {
      "GoogleApiUrl": "http://maps.googleapis.com/maps/api/geocode/json?address=האמן,+בנימינה-גבעת עדה,+ישראל&sensor=true_or_false",
      "Lat": 32.5143449,
      "Lng": 34.948192600000013,
      "Desc": null,
      "UId": 43683,
      "Status": "OK",
      "Id": "7994",
      "CodeCity": "9800",
      "City": "בנימינה-גבעת עדה",
      "CodeAddr": "115",
      "Addr": "האמן",
      "Tbl": "טבלת רחובות"
    },
    {
      "GoogleApiUrl": "http://maps.googleapis.com/maps/api/geocode/json?address=האסיף,+בנימינה-גבעת עדה,+ישראל&sensor=true_or_false",
      "Lat": 32.5142131,
      "Lng": 34.9472543,
      "Desc": null,
      "UId": 43684,
      "Status": "OK",
      "Id": "7995",
      "CodeCity": "9800",
      "City": "בנימינה-גבעת עדה",
      "CodeAddr": "213",
      "Addr": "האסיף",
      "Tbl": "טבלת רחובות"
    },
    {
      "GoogleApiUrl": "http://maps.googleapis.com/maps/api/geocode/json?address=האפיק,+בנימינה-גבעת עדה,+ישראל&sensor=true_or_false",
      "Lat": 32.5243576,
      "Lng": 34.9550252,
      "Desc": null,
      "UId": 43685,
      "Status": "OK",
      "Id": "7996",
      "CodeCity": "9800",
      "City": "בנימינה-גבעת עדה",
      "CodeAddr": "218",
      "Addr": "האפיק",
      "Tbl": "טבלת רחובות"
    },
    {
      "GoogleApiUrl": "http://maps.googleapis.com/maps/api/geocode/json?address=הארז,+בנימינה-גבעת עדה,+ישראל&sensor=true_or_false",
      "Lat": 32.523481,
      "Lng": 34.939142,
      "Desc": null,
      "UId": 43686,
      "Status": "OK",
      "Id": "7997",
      "CodeCity": "9800",
      "City": "בנימינה-גבעת עדה",
      "CodeAddr": "194",
      "Addr": "הארז",
      "Tbl": "טבלת רחובות"
    },
    {
      "GoogleApiUrl": "http://maps.googleapis.com/maps/api/geocode/json?address=הארזים גבעת עדה,+בנימינה-גבעת עדה,+ישראל&sensor=true_or_false",
      "Lat": 32.5228296,
      "Lng": 34.9954236,
      "Desc": null,
      "UId": 43687,
      "Status": "OK",
      "Id": "7998",
      "CodeCity": "9800",
      "City": "בנימינה-גבעת עדה",
      "CodeAddr": "3120",
      "Addr": "הארזים גבעת עדה",
      "Tbl": "טבלת רחובות"
    },
    {
      "GoogleApiUrl": "http://maps.googleapis.com/maps/api/geocode/json?address=האשכול גבעת עדה,+בנימינה-גבעת עדה,+ישראל&sensor=true_or_false",
      "Lat": 32.5162173,
      "Lng": 35.0005199,
      "Desc": null,
      "UId": 43688,
      "Status": "OK",
      "Id": "7999",
      "CodeCity": "9800",
      "City": "בנימינה-גבעת עדה",
      "CodeAddr": "3125",
      "Addr": "האשכול גבעת עדה",
      "Tbl": "טבלת רחובות"
    },
    {
      "GoogleApiUrl": "http://maps.googleapis.com/maps/api/geocode/json?address=האשל,+בנימינה-גבעת עדה,+ישראל&sensor=true_or_false",
      "Lat": 32.5230536,
      "Lng": 34.9422004,
      "Desc": null,
      "UId": 43692,
      "Status": "OK",
      "Id": "8000",
      "CodeCity": "9800",
      "City": "בנימינה-גבעת עדה",
      "CodeAddr": "187",
      "Addr": "האשל",
      "Tbl": "טבלת רחובות"
    },
    {
      "GoogleApiUrl": "http://maps.googleapis.com/maps/api/geocode/json?address=הבוסתן,+בנימינה-גבעת עדה,+ישראל&sensor=true_or_false",
      "Lat": 32.5151833,
      "Lng": 34.951323599999988,
      "Desc": null,
      "UId": 43693,
      "Status": "OK",
      "Id": "8001",
      "CodeCity": "9800",
      "City": "בנימינה-גבעת עדה",
      "CodeAddr": "222",
      "Addr": "הבוסתן",
      "Tbl": "טבלת רחובות"
    },
    {
      "GoogleApiUrl": "http://maps.googleapis.com/maps/api/geocode/json?address=הבושם,+בנימינה-גבעת עדה,+ישראל&sensor=true_or_false",
      "Lat": 32.5207785,
      "Lng": 34.9422141,
      "Desc": null,
      "UId": 43694,
      "Status": "OK",
      "Id": "8002",
      "CodeCity": "9800",
      "City": "בנימינה-גבעת עדה",
      "CodeAddr": "184",
      "Addr": "הבושם",
      "Tbl": "טבלת רחובות"
    },
    {
      "GoogleApiUrl": "http://maps.googleapis.com/maps/api/geocode/json?address=הבזלת,+בנימינה-גבעת עדה,+ישראל&sensor=true_or_false",
      "Lat": 32.5259884,
      "Lng": 34.9255085,
      "Desc": null,
      "UId": 43695,
      "Status": "OK",
      "Id": "8003",
      "CodeCity": "9800",
      "City": "בנימינה-גבעת עדה",
      "CodeAddr": "113",
      "Addr": "הבזלת",
      "Tbl": "טבלת רחובות"
    },
    {
      "GoogleApiUrl": "http://maps.googleapis.com/maps/api/geocode/json?address=הבציר,+בנימינה-גבעת עדה,+ישראל&sensor=true_or_false",
      "Lat": 32.5186437,
      "Lng": 34.9476695,
      "Desc": null,
      "UId": 43696,
      "Status": "OK",
      "Id": "8004",
      "CodeCity": "9800",
      "City": "בנימינה-גבעת עדה",
      "CodeAddr": "210",
      "Addr": "הבציר",
      "Tbl": "טבלת רחובות"
    },
    {
      "GoogleApiUrl": "http://maps.googleapis.com/maps/api/geocode/json?address=הברוש,+בנימינה-גבעת עדה,+ישראל&sensor=true_or_false",
      "Lat": 32.5169555,
      "Lng": 34.9417824,
      "Desc": null,
      "UId": 43697,
      "Status": "OK",
      "Id": "8005",
      "CodeCity": "9800",
      "City": "בנימינה-גבעת עדה",
      "CodeAddr": "160",
      "Addr": "הברוש",
      "Tbl": "טבלת רחובות"
    },
    {
      "GoogleApiUrl": "http://maps.googleapis.com/maps/api/geocode/json?address=הגבורים,+בנימינה-גבעת עדה,+ישראל&sensor=true_or_false",
      "Lat": 32.5256476,
      "Lng": 34.9453578,
      "Desc": null,
      "UId": 43698,
      "Status": "OK",
      "Id": "8006",
      "CodeCity": "9800",
      "City": "בנימינה-גבעת עדה",
      "CodeAddr": "133",
      "Addr": "הגבורים",
      "Tbl": "טבלת רחובות"
    },
    {
      "GoogleApiUrl": "http://maps.googleapis.com/maps/api/geocode/json?address=הגביע,+בנימינה-גבעת עדה,+ישראל&sensor=true_or_false",
      "Lat": 32.5174,
      "Lng": 34.9407696,
      "Desc": null,
      "UId": 43699,
      "Status": "OK",
      "Id": "8007",
      "CodeCity": "9800",
      "City": "בנימינה-גבעת עדה",
      "CodeAddr": "204",
      "Addr": "הגביע",
      "Tbl": "טבלת רחובות"
    },
    {
      "GoogleApiUrl": "http://maps.googleapis.com/maps/api/geocode/json?address=הגבעה גבעת עדה,+בנימינה-גבעת עדה,+ישראל&sensor=true_or_false",
      "Lat": 32.5203542,
      "Lng": 34.9977389,
      "Desc": null,
      "UId": 43700,
      "Status": "OK",
      "Id": "8008",
      "CodeCity": "9800",
      "City": "בנימינה-גבעת עדה",
      "CodeAddr": "3133",
      "Addr": "הגבעה גבעת עדה",
      "Tbl": "טבלת רחובות"
    },
    {
      "GoogleApiUrl": "http://maps.googleapis.com/maps/api/geocode/json?address=הגדיש,+בנימינה-גבעת עדה,+ישראל&sensor=true_or_false",
      "Lat": 32.515979,
      "Lng": 34.94501,
      "Desc": null,
      "UId": 43701,
      "Status": "OK",
      "Id": "8009",
      "CodeCity": "9800",
      "City": "בנימינה-גבעת עדה",
      "CodeAddr": "211",
      "Addr": "הגדיש",
      "Tbl": "טבלת רחובות"
    },
    {
      "GoogleApiUrl": "http://maps.googleapis.com/maps/api/geocode/json?address=הגדנ\"ע,+בנימינה-גבעת עדה,+ישראל&sensor=true_or_false",
      "Lat": 32.517078,
      "Lng": 34.955096,
      "Desc": null,
      "UId": 43703,
      "Status": "OK",
      "Id": "8010",
      "CodeCity": "9800",
      "City": "בנימינה-גבעת עדה",
      "CodeAddr": "141",
      "Addr": "הגדנ\"ע",
      "Tbl": "טבלת רחובות"
    },
    {
      "GoogleApiUrl": "http://maps.googleapis.com/maps/api/geocode/json?address=הגומא גבעת עדה,+בנימינה-גבעת עדה,+ישראל&sensor=true_or_false",
      "Lat": 32.5214084,
      "Lng": 34.9997498,
      "Desc": null,
      "UId": 43704,
      "Status": "OK",
      "Id": "8011",
      "CodeCity": "9800",
      "City": "בנימינה-גבעת עדה",
      "CodeAddr": "3129",
      "Addr": "הגומא גבעת עדה",
      "Tbl": "טבלת רחובות"
    },
    {
      "GoogleApiUrl": "http://maps.googleapis.com/maps/api/geocode/json?address=הגורן,+בנימינה-גבעת עדה,+ישראל&sensor=true_or_false",
      "Lat": 32.521991,
      "Lng": 34.952561,
      "Desc": null,
      "UId": 43705,
      "Status": "OK",
      "Id": "8012",
      "CodeCity": "9800",
      "City": "בנימינה-גבעת עדה",
      "CodeAddr": "121",
      "Addr": "הגורן",
      "Tbl": "טבלת רחובות"
    },
    {
      "GoogleApiUrl": "http://maps.googleapis.com/maps/api/geocode/json?address=הגורן גבעת עדה,+בנימינה-גבעת עדה,+ישראל&sensor=true_or_false",
      "Lat": 32.521991,
      "Lng": 34.952561,
      "Desc": null,
      "UId": 43706,
      "Status": "OK",
      "Id": "8013",
      "CodeCity": "9800",
      "City": "בנימינה-גבעת עדה",
      "CodeAddr": "3148",
      "Addr": "הגורן גבעת עדה",
      "Tbl": "טבלת רחובות"
    },
    {
      "GoogleApiUrl": "http://maps.googleapis.com/maps/api/geocode/json?address=הגזית,+בנימינה-גבעת עדה,+ישראל&sensor=true_or_false",
      "Lat": 32.5262274,
      "Lng": 34.9438815,
      "Desc": null,
      "UId": 43707,
      "Status": "OK",
      "Id": "8014",
      "CodeCity": "9800",
      "City": "בנימינה-גבעת עדה",
      "CodeAddr": "166",
      "Addr": "הגזית",
      "Tbl": "טבלת רחובות"
    },
    {
      "GoogleApiUrl": "http://maps.googleapis.com/maps/api/geocode/json?address=הגיא,+בנימינה-גבעת עדה,+ישראל&sensor=true_or_false",
      "Lat": 32.5269032,
      "Lng": 34.9557206,
      "Desc": null,
      "UId": 43708,
      "Status": "OK",
      "Id": "8015",
      "CodeCity": "9800",
      "City": "בנימינה-גבעת עדה",
      "CodeAddr": "219",
      "Addr": "הגיא",
      "Tbl": "טבלת רחובות"
    },
    {
      "GoogleApiUrl": "http://maps.googleapis.com/maps/api/geocode/json?address=הגנים,+בנימינה-גבעת עדה,+ישראל&sensor=true_or_false",
      "Lat": 31.3409589,
      "Lng": 35.1009944,
      "Desc": null,
      "UId": 43709,
      "Status": "OK",
      "Id": "8016",
      "CodeCity": "9800",
      "City": "בנימינה-גבעת עדה",
      "CodeAddr": "106",
      "Addr": "הגנים",
      "Tbl": "טבלת רחובות"
    },
    {
      "GoogleApiUrl": "http://maps.googleapis.com/maps/api/geocode/json?address=הגפן,+בנימינה-גבעת עדה,+ישראל&sensor=true_or_false",
      "Lat": 32.519139,
      "Lng": 34.952187,
      "Desc": null,
      "UId": 43710,
      "Status": "OK",
      "Id": "8017",
      "CodeCity": "9800",
      "City": "בנימינה-גבעת עדה",
      "CodeAddr": "139",
      "Addr": "הגפן",
      "Tbl": "טבלת רחובות"
    },
    {
      "GoogleApiUrl": "http://maps.googleapis.com/maps/api/geocode/json?address=הגפן גבעת עדה,+בנימינה-גבעת עדה,+ישראל&sensor=true_or_false",
      "Lat": 32.519139,
      "Lng": 34.952187,
      "Desc": null,
      "UId": 43711,
      "Status": "OK",
      "Id": "8018",
      "CodeCity": "9800",
      "City": "בנימינה-גבעת עדה",
      "CodeAddr": "3116",
      "Addr": "הגפן גבעת עדה",
      "Tbl": "טבלת רחובות"
    },
    {
      "GoogleApiUrl": "http://maps.googleapis.com/maps/api/geocode/json?address=הגת,+בנימינה-גבעת עדה,+ישראל&sensor=true_or_false",
      "Lat": 32.5590229,
      "Lng": 34.962917,
      "Desc": null,
      "UId": 43712,
      "Status": "OK",
      "Id": "8019",
      "CodeCity": "9800",
      "City": "בנימינה-גבעת עדה",
      "CodeAddr": "128",
      "Addr": "הגת",
      "Tbl": "טבלת רחובות"
    },
    {
      "GoogleApiUrl": "http://maps.googleapis.com/maps/api/geocode/json?address=הדגן,+בנימינה-גבעת עדה,+ישראל&sensor=true_or_false",
      "Lat": 32.5692268,
      "Lng": 34.9550462,
      "Desc": null,
      "UId": 43714,
      "Status": "OK",
      "Id": "8020",
      "CodeCity": "9800",
      "City": "בנימינה-גבעת עדה",
      "CodeAddr": "149",
      "Addr": "הדגן",
      "Tbl": "טבלת רחובות"
    },
    {
      "GoogleApiUrl": "http://maps.googleapis.com/maps/api/geocode/json?address=הדגן גבעת עדה,+בנימינה-גבעת עדה,+ישראל&sensor=true_or_false",
      "Lat": 32.5221405,
      "Lng": 35.0144704,
      "Desc": null,
      "UId": 43715,
      "Status": "OK",
      "Id": "8021",
      "CodeCity": "9800",
      "City": "בנימינה-גבעת עדה",
      "CodeAddr": "3122",
      "Addr": "הדגן גבעת עדה",
      "Tbl": "טבלת רחובות"
    },
    {
      "GoogleApiUrl": "http://maps.googleapis.com/maps/api/geocode/json?address=הדולב,+בנימינה-גבעת עדה,+ישראל&sensor=true_or_false",
      "Lat": 32.5233906,
      "Lng": 34.9411797,
      "Desc": null,
      "UId": 43716,
      "Status": "OK",
      "Id": "8022",
      "CodeCity": "9800",
      "City": "בנימינה-גבעת עדה",
      "CodeAddr": "189",
      "Addr": "הדולב",
      "Tbl": "טבלת רחובות"
    },
    {
      "GoogleApiUrl": "http://maps.googleapis.com/maps/api/geocode/json?address=הדפנה גבעת עדה,+בנימינה-גבעת עדה,+ישראל&sensor=true_or_false",
      "Lat": 32.5177129,
      "Lng": 35.01695,
      "Desc": null,
      "UId": 43717,
      "Status": "OK",
      "Id": "8023",
      "CodeCity": "9800",
      "City": "בנימינה-גבעת עדה",
      "CodeAddr": "3158",
      "Addr": "הדפנה גבעת עדה",
      "Tbl": "טבלת רחובות"
    },
    {
      "GoogleApiUrl": "http://maps.googleapis.com/maps/api/geocode/json?address=הדקל,+בנימינה-גבעת עדה,+ישראל&sensor=true_or_false",
      "Lat": 32.524295599999988,
      "Lng": 34.9478599,
      "Desc": null,
      "UId": 43718,
      "Status": "OK",
      "Id": "8024",
      "CodeCity": "9800",
      "City": "בנימינה-גבעת עדה",
      "CodeAddr": "132",
      "Addr": "הדקל",
      "Tbl": "טבלת רחובות"
    },
    {
      "GoogleApiUrl": "http://maps.googleapis.com/maps/api/geocode/json?address=הדקל גבעת עדה,+בנימינה-גבעת עדה,+ישראל&sensor=true_or_false",
      "Lat": 32.516543,
      "Lng": 35.003236,
      "Desc": null,
      "UId": 43719,
      "Status": "OK",
      "Id": "8025",
      "CodeCity": "9800",
      "City": "בנימינה-גבעת עדה",
      "CodeAddr": "3115",
      "Addr": "הדקל גבעת עדה",
      "Tbl": "טבלת רחובות"
    },
    {
      "GoogleApiUrl": "http://maps.googleapis.com/maps/api/geocode/json?address=הדר גבעת עדה,+בנימינה-גבעת עדה,+ישראל&sensor=true_or_false",
      "Lat": 32.5265261,
      "Lng": 34.9072411,
      "Desc": null,
      "UId": 43720,
      "Status": "OK",
      "Id": "8026",
      "CodeCity": "9800",
      "City": "בנימינה-גבעת עדה",
      "CodeAddr": "3131",
      "Addr": "הדר גבעת עדה",
      "Tbl": "טבלת רחובות"
    },
    {
      "GoogleApiUrl": "http://maps.googleapis.com/maps/api/geocode/json?address=הדרור,+בנימינה-גבעת עדה,+ישראל&sensor=true_or_false",
      "Lat": 32.5173513,
      "Lng": 34.9369401,
      "Desc": null,
      "UId": 43721,
      "Status": "OK",
      "Id": "8027",
      "CodeCity": "9800",
      "City": "בנימינה-גבעת עדה",
      "CodeAddr": "202",
      "Addr": "הדרור",
      "Tbl": "טבלת רחובות"
    },
    {
      "GoogleApiUrl": "http://maps.googleapis.com/maps/api/geocode/json?address=ההגנה,+בנימינה-גבעת עדה,+ישראל&sensor=true_or_false",
      "Lat": 32.520241,
      "Lng": 34.9442743,
      "Desc": null,
      "UId": 43722,
      "Status": "OK",
      "Id": "8028",
      "CodeCity": "9800",
      "City": "בנימינה-גבעת עדה",
      "CodeAddr": "142",
      "Addr": "ההגנה",
      "Tbl": "טבלת רחובות"
    },
    {
      "GoogleApiUrl": "http://maps.googleapis.com/maps/api/geocode/json?address=ההדס,+בנימינה-גבעת עדה,+ישראל&sensor=true_or_false",
      "Lat": 32.5230449,
      "Lng": 34.940659,
      "Desc": null,
      "UId": 43723,
      "Status": "OK",
      "Id": "8029",
      "CodeCity": "9800",
      "City": "בנימינה-גבעת עדה",
      "CodeAddr": "190",
      "Addr": "ההדס",
      "Tbl": "טבלת רחובות"
    },
    {
      "GoogleApiUrl": "http://maps.googleapis.com/maps/api/geocode/json?address=ההרדוף גבעת עדה,+בנימינה-גבעת עדה,+ישראל&sensor=true_or_false",
      "Lat": 32.51714,
      "Lng": 34.949035599999988,
      "Desc": null,
      "UId": 43725,
      "Status": "OK",
      "Id": "8030",
      "CodeCity": "9800",
      "City": "בנימינה-גבעת עדה",
      "CodeAddr": "3130",
      "Addr": "ההרדוף גבעת עדה",
      "Tbl": "טבלת רחובות"
    },
    {
      "GoogleApiUrl": "http://maps.googleapis.com/maps/api/geocode/json?address=הזית,+בנימינה-גבעת עדה,+ישראל&sensor=true_or_false",
      "Lat": 32.522471,
      "Lng": 34.949813,
      "Desc": null,
      "UId": 43726,
      "Status": "OK",
      "Id": "8031",
      "CodeCity": "9800",
      "City": "בנימינה-גבעת עדה",
      "CodeAddr": "137",
      "Addr": "הזית",
      "Tbl": "טבלת רחובות"
    },
    {
      "GoogleApiUrl": "http://maps.googleapis.com/maps/api/geocode/json?address=הזית גבעת עדה,+בנימינה-גבעת עדה,+ישראל&sensor=true_or_false",
      "Lat": 32.522471,
      "Lng": 34.949813,
      "Desc": null,
      "UId": 43727,
      "Status": "OK",
      "Id": "8032",
      "CodeCity": "9800",
      "City": "בנימינה-גבעת עדה",
      "CodeAddr": "3112",
      "Addr": "הזית גבעת עדה",
      "Tbl": "טבלת רחובות"
    },
    {
      "GoogleApiUrl": "http://maps.googleapis.com/maps/api/geocode/json?address=החבצלת,+בנימינה-גבעת עדה,+ישראל&sensor=true_or_false",
      "Lat": 32.4971073,
      "Lng": 34.9195832,
      "Desc": null,
      "UId": 43728,
      "Status": "OK",
      "Id": "8033",
      "CodeCity": "9800",
      "City": "בנימינה-גבעת עדה",
      "CodeAddr": "135",
      "Addr": "החבצלת",
      "Tbl": "טבלת רחובות"
    },
    {
      "GoogleApiUrl": "http://maps.googleapis.com/maps/api/geocode/json?address=החורש,+בנימינה-גבעת עדה,+ישראל&sensor=true_or_false",
      "Lat": 32.519139,
      "Lng": 34.952187,
      "Desc": null,
      "UId": 43729,
      "Status": "OK",
      "Id": "8034",
      "CodeCity": "9800",
      "City": "בנימינה-גבעת עדה",
      "CodeAddr": "105",
      "Addr": "החורש",
      "Tbl": "טבלת רחובות"
    },
    {
      "GoogleApiUrl": "http://maps.googleapis.com/maps/api/geocode/json?address=החורש גבעת עדה,+בנימינה-גבעת עדה,+ישראל&sensor=true_or_false",
      "Lat": 32.519139,
      "Lng": 34.952187,
      "Desc": null,
      "UId": 43730,
      "Status": "OK",
      "Id": "8035",
      "CodeCity": "9800",
      "City": "בנימינה-גבעת עדה",
      "CodeAddr": "3102",
      "Addr": "החורש גבעת עדה",
      "Tbl": "טבלת רחובות"
    },
    {
      "GoogleApiUrl": "http://maps.googleapis.com/maps/api/geocode/json?address=החיטה,+בנימינה-גבעת עדה,+ישראל&sensor=true_or_false",
      "Lat": 32.5196592,
      "Lng": 34.9366056,
      "Desc": null,
      "UId": 43731,
      "Status": "OK",
      "Id": "8036",
      "CodeCity": "9800",
      "City": "בנימינה-גבעת עדה",
      "CodeAddr": "180",
      "Addr": "החיטה",
      "Tbl": "טבלת רחובות"
    },
    {
      "GoogleApiUrl": "http://maps.googleapis.com/maps/api/geocode/json?address=החיטה גבעת עדה,+בנימינה-גבעת עדה,+ישראל&sensor=true_or_false",
      "Lat": 32.5196592,
      "Lng": 34.9366056,
      "Desc": null,
      "UId": 43732,
      "Status": "OK",
      "Id": "8037",
      "CodeCity": "9800",
      "City": "בנימינה-גבעת עדה",
      "CodeAddr": "3123",
      "Addr": "החיטה גבעת עדה",
      "Tbl": "טבלת רחובות"
    },
    {
      "GoogleApiUrl": "http://maps.googleapis.com/maps/api/geocode/json?address=החרוב,+בנימינה-גבעת עדה,+ישראל&sensor=true_or_false",
      "Lat": 32.5243658,
      "Lng": 34.9387228,
      "Desc": null,
      "UId": 43733,
      "Status": "OK",
      "Id": "8038",
      "CodeCity": "9800",
      "City": "בנימינה-גבעת עדה",
      "CodeAddr": "172",
      "Addr": "החרוב",
      "Tbl": "טבלת רחובות"
    },
    {
      "GoogleApiUrl": "http://maps.googleapis.com/maps/api/geocode/json?address=החרוב גבעת עדה,+בנימינה-גבעת עדה,+ישראל&sensor=true_or_false",
      "Lat": 32.5243658,
      "Lng": 34.9387228,
      "Desc": null,
      "UId": 43734,
      "Status": "OK",
      "Id": "8039",
      "CodeCity": "9800",
      "City": "בנימינה-גבעת עדה",
      "CodeAddr": "3127",
      "Addr": "החרוב גבעת עדה",
      "Tbl": "טבלת רחובות"
    },
    {
      "GoogleApiUrl": "http://maps.googleapis.com/maps/api/geocode/json?address=החרצית,+בנימינה-גבעת עדה,+ישראל&sensor=true_or_false",
      "Lat": 32.5242324,
      "Lng": 34.9424019,
      "Desc": null,
      "UId": 43736,
      "Status": "OK",
      "Id": "8040",
      "CodeCity": "9800",
      "City": "בנימינה-גבעת עדה",
      "CodeAddr": "104",
      "Addr": "החרצית",
      "Tbl": "טבלת רחובות"
    },
    {
      "GoogleApiUrl": "http://maps.googleapis.com/maps/api/geocode/json?address=החרצית גבעת עדה,+בנימינה-גבעת עדה,+ישראל&sensor=true_or_false",
      "Lat": 32.516464,
      "Lng": 35.0074186,
      "Desc": null,
      "UId": 43737,
      "Status": "OK",
      "Id": "8041",
      "CodeCity": "9800",
      "City": "בנימינה-גבעת עדה",
      "CodeAddr": "3140",
      "Addr": "החרצית גבעת עדה",
      "Tbl": "טבלת רחובות"
    },
    {
      "GoogleApiUrl": "http://maps.googleapis.com/maps/api/geocode/json?address=החרש,+בנימינה-גבעת עדה,+ישראל&sensor=true_or_false",
      "Lat": 32.5109699,
      "Lng": 34.947686399999988,
      "Desc": null,
      "UId": 43738,
      "Status": "OK",
      "Id": "8042",
      "CodeCity": "9800",
      "City": "בנימינה-גבעת עדה",
      "CodeAddr": "116",
      "Addr": "החרש",
      "Tbl": "טבלת רחובות"
    },
    {
      "GoogleApiUrl": "http://maps.googleapis.com/maps/api/geocode/json?address=הטחנה,+בנימינה-גבעת עדה,+ישראל&sensor=true_or_false",
      "Lat": 32.5145837,
      "Lng": 34.9491109,
      "Desc": null,
      "UId": 43739,
      "Status": "OK",
      "Id": "8043",
      "CodeCity": "9800",
      "City": "בנימינה-גבעת עדה",
      "CodeAddr": "103",
      "Addr": "הטחנה",
      "Tbl": "טבלת רחובות"
    },
    {
      "GoogleApiUrl": "http://maps.googleapis.com/maps/api/geocode/json?address=היובל,+בנימינה-גבעת עדה,+ישראל&sensor=true_or_false",
      "Lat": 32.5247653,
      "Lng": 34.9552545,
      "Desc": null,
      "UId": 43740,
      "Status": "OK",
      "Id": "8044",
      "CodeCity": "9800",
      "City": "בנימינה-גבעת עדה",
      "CodeAddr": "220",
      "Addr": "היובל",
      "Tbl": "טבלת רחובות"
    },
    {
      "GoogleApiUrl": "http://maps.googleapis.com/maps/api/geocode/json?address=היין,+בנימינה-גבעת עדה,+ישראל&sensor=true_or_false",
      "Lat": 32.518055,
      "Lng": 34.944626,
      "Desc": null,
      "UId": 43741,
      "Status": "OK",
      "Id": "8045",
      "CodeCity": "9800",
      "City": "בנימינה-גבעת עדה",
      "CodeAddr": "206",
      "Addr": "היין",
      "Tbl": "טבלת רחובות"
    },
    {
      "GoogleApiUrl": "http://maps.googleapis.com/maps/api/geocode/json?address=היסמין,+בנימינה-גבעת עדה,+ישראל&sensor=true_or_false",
      "Lat": 32.5205411,
      "Lng": 34.9411558,
      "Desc": null,
      "UId": 43742,
      "Status": "OK",
      "Id": "8046",
      "CodeCity": "9800",
      "City": "בנימינה-גבעת עדה",
      "CodeAddr": "144",
      "Addr": "היסמין",
      "Tbl": "טבלת רחובות"
    },
    {
      "GoogleApiUrl": "http://maps.googleapis.com/maps/api/geocode/json?address=היסמין גבעת עדה,+בנימינה-גבעת עדה,+ישראל&sensor=true_or_false",
      "Lat": 32.5205411,
      "Lng": 34.9411558,
      "Desc": null,
      "UId": 43743,
      "Status": "OK",
      "Id": "8047",
      "CodeCity": "9800",
      "City": "בנימינה-גבעת עדה",
      "CodeAddr": "3105",
      "Addr": "היסמין גבעת עדה",
      "Tbl": "טבלת רחובות"
    },
    {
      "GoogleApiUrl": "http://maps.googleapis.com/maps/api/geocode/json?address=היער גבעת עדה,+בנימינה-גבעת עדה,+ישראל&sensor=true_or_false",
      "Lat": 32.5133957,
      "Lng": 35.0028975,
      "Desc": null,
      "UId": 43744,
      "Status": "OK",
      "Id": "8048",
      "CodeCity": "9800",
      "City": "בנימינה-גבעת עדה",
      "CodeAddr": "3106",
      "Addr": "היער גבעת עדה",
      "Tbl": "טבלת רחובות"
    },
    {
      "GoogleApiUrl": "http://maps.googleapis.com/maps/api/geocode/json?address=היקב,+בנימינה-גבעת עדה,+ישראל&sensor=true_or_false",
      "Lat": 32.5209081,
      "Lng": 34.9451222,
      "Desc": null,
      "UId": 43745,
      "Status": "OK",
      "Id": "8049",
      "CodeCity": "9800",
      "City": "בנימינה-גבעת עדה",
      "CodeAddr": "154",
      "Addr": "היקב",
      "Tbl": "טבלת רחובות"
    },
    {
      "GoogleApiUrl": "http://maps.googleapis.com/maps/api/geocode/json?address=היקינטון גבעת עדה,+בנימינה-גבעת עדה,+ישראל&sensor=true_or_false",
      "Lat": 32.519892,
      "Lng": 34.997115,
      "Desc": null,
      "UId": 43747,
      "Status": "OK",
      "Id": "8050",
      "CodeCity": "9800",
      "City": "בנימינה-גבעת עדה",
      "CodeAddr": "3160",
      "Addr": "היקינטון גבעת עדה",
      "Tbl": "טבלת רחובות"
    },
    {
      "GoogleApiUrl": "http://maps.googleapis.com/maps/api/geocode/json?address=הככר,+בנימינה-גבעת עדה,+ישראל&sensor=true_or_false",
      "Lat": 32.520145,
      "Lng": 34.951134,
      "Desc": null,
      "UId": 43748,
      "Status": "OK",
      "Id": "8051",
      "CodeCity": "9800",
      "City": "בנימינה-גבעת עדה",
      "CodeAddr": "140",
      "Addr": "הככר",
      "Tbl": "טבלת רחובות"
    },
    {
      "GoogleApiUrl": "http://maps.googleapis.com/maps/api/geocode/json?address=הכלנית,+בנימינה-גבעת עדה,+ישראל&sensor=true_or_false",
      "Lat": 32.4966273,
      "Lng": 34.919561,
      "Desc": null,
      "UId": 43749,
      "Status": "OK",
      "Id": "8052",
      "CodeCity": "9800",
      "City": "בנימינה-גבעת עדה",
      "CodeAddr": "129",
      "Addr": "הכלנית",
      "Tbl": "טבלת רחובות"
    },
    {
      "GoogleApiUrl": "http://maps.googleapis.com/maps/api/geocode/json?address=הכרכום,+בנימינה-גבעת עדה,+ישראל&sensor=true_or_false",
      "Lat": 32.5249606,
      "Lng": 34.9371539,
      "Desc": null,
      "UId": 43750,
      "Status": "OK",
      "Id": "8053",
      "CodeCity": "9800",
      "City": "בנימינה-גבעת עדה",
      "CodeAddr": "173",
      "Addr": "הכרכום",
      "Tbl": "טבלת רחובות"
    },
    {
      "GoogleApiUrl": "http://maps.googleapis.com/maps/api/geocode/json?address=הכרם,+בנימינה-גבעת עדה,+ישראל&sensor=true_or_false",
      "Lat": 32.5176522,
      "Lng": 34.9472866,
      "Desc": null,
      "UId": 43751,
      "Status": "OK",
      "Id": "8054",
      "CodeCity": "9800",
      "City": "בנימינה-גבעת עדה",
      "CodeAddr": "207",
      "Addr": "הכרם",
      "Tbl": "טבלת רחובות"
    },
    {
      "GoogleApiUrl": "http://maps.googleapis.com/maps/api/geocode/json?address=הכרמל,+בנימינה-גבעת עדה,+ישראל&sensor=true_or_false",
      "Lat": 32.5285642,
      "Lng": 34.9269985,
      "Desc": null,
      "UId": 43752,
      "Status": "OK",
      "Id": "8055",
      "CodeCity": "9800",
      "City": "בנימינה-גבעת עדה",
      "CodeAddr": "122",
      "Addr": "הכרמל",
      "Tbl": "טבלת רחובות"
    },
    {
      "GoogleApiUrl": "http://maps.googleapis.com/maps/api/geocode/json?address=הלבונה גבעת עדה,+בנימינה-גבעת עדה,+ישראל&sensor=true_or_false",
      "Lat": 32.516573,
      "Lng": 35.0059207,
      "Desc": null,
      "UId": 43753,
      "Status": "OK",
      "Id": "8056",
      "CodeCity": "9800",
      "City": "בנימינה-גבעת עדה",
      "CodeAddr": "3168",
      "Addr": "הלבונה גבעת עדה",
      "Tbl": "טבלת רחובות"
    },
    {
      "GoogleApiUrl": "http://maps.googleapis.com/maps/api/geocode/json?address=הלוטם,+בנימינה-גבעת עדה,+ישראל&sensor=true_or_false",
      "Lat": 32.5243631,
      "Lng": 34.941214,
      "Desc": null,
      "UId": 43754,
      "Status": "OK",
      "Id": "8057",
      "CodeCity": "9800",
      "City": "בנימינה-גבעת עדה",
      "CodeAddr": "192",
      "Addr": "הלוטם",
      "Tbl": "טבלת רחובות"
    },
    {
      "GoogleApiUrl": "http://maps.googleapis.com/maps/api/geocode/json?address=הליבנה גבעת עדה,+בנימינה-גבעת עדה,+ישראל&sensor=true_or_false",
      "Lat": 32.5188627,
      "Lng": 35.0180601,
      "Desc": null,
      "UId": 43755,
      "Status": "OK",
      "Id": "8058",
      "CodeCity": "9800",
      "City": "בנימינה-גבעת עדה",
      "CodeAddr": "3150",
      "Addr": "הליבנה גבעת עדה",
      "Tbl": "טבלת רחובות"
    },
    {
      "GoogleApiUrl": "http://maps.googleapis.com/maps/api/geocode/json?address=המגל,+בנימינה-גבעת עדה,+ישראל&sensor=true_or_false",
      "Lat": 32.517078,
      "Lng": 34.955096,
      "Desc": null,
      "UId": 43756,
      "Status": "OK",
      "Id": "8059",
      "CodeCity": "9800",
      "City": "בנימינה-גבעת עדה",
      "CodeAddr": "208",
      "Addr": "המגל",
      "Tbl": "טבלת רחובות"
    },
    {
      "GoogleApiUrl": "http://maps.googleapis.com/maps/api/geocode/json?address=המורג,+בנימינה-גבעת עדה,+ישראל&sensor=true_or_false",
      "Lat": 32.516818,
      "Lng": 34.945112,
      "Desc": null,
      "UId": 43758,
      "Status": "OK",
      "Id": "8060",
      "CodeCity": "9800",
      "City": "בנימינה-גבעת עדה",
      "CodeAddr": "209",
      "Addr": "המורג",
      "Tbl": "טבלת רחובות"
    },
    {
      "GoogleApiUrl": "http://maps.googleapis.com/maps/api/geocode/json?address=המורה,+בנימינה-גבעת עדה,+ישראל&sensor=true_or_false",
      "Lat": 32.5196932,
      "Lng": 34.9496562,
      "Desc": null,
      "UId": 43759,
      "Status": "OK",
      "Id": "8061",
      "CodeCity": "9800",
      "City": "בנימינה-גבעת עדה",
      "CodeAddr": "150",
      "Addr": "המורה",
      "Tbl": "טבלת רחובות"
    },
    {
      "GoogleApiUrl": "http://maps.googleapis.com/maps/api/geocode/json?address=המיסדים,+בנימינה-גבעת עדה,+ישראל&sensor=true_or_false",
      "Lat": 32.521512,
      "Lng": 34.948577,
      "Desc": null,
      "UId": 43760,
      "Status": "OK",
      "Id": "8062",
      "CodeCity": "9800",
      "City": "בנימינה-גבעת עדה",
      "CodeAddr": "126",
      "Addr": "המיסדים",
      "Tbl": "טבלת רחובות"
    },
    {
      "GoogleApiUrl": "http://maps.googleapis.com/maps/api/geocode/json?address=המלאכה,+בנימינה-גבעת עדה,+ישראל&sensor=true_or_false",
      "Lat": 32.5127522,
      "Lng": 34.9485231,
      "Desc": null,
      "UId": 43761,
      "Status": "OK",
      "Id": "8063",
      "CodeCity": "9800",
      "City": "בנימינה-גבעת עדה",
      "CodeAddr": "117",
      "Addr": "המלאכה",
      "Tbl": "טבלת רחובות"
    },
    {
      "GoogleApiUrl": "http://maps.googleapis.com/maps/api/geocode/json?address=המעיין,+בנימינה-גבעת עדה,+ישראל&sensor=true_or_false",
      "Lat": 32.5245739,
      "Lng": 34.9561028,
      "Desc": null,
      "UId": 43762,
      "Status": "OK",
      "Id": "8064",
      "CodeCity": "9800",
      "City": "בנימינה-גבעת עדה",
      "CodeAddr": "221",
      "Addr": "המעיין",
      "Tbl": "טבלת רחובות"
    },
    {
      "GoogleApiUrl": "http://maps.googleapis.com/maps/api/geocode/json?address=המרוה,+בנימינה-גבעת עדה,+ישראל&sensor=true_or_false",
      "Lat": 32.5238027,
      "Lng": 34.9419514,
      "Desc": null,
      "UId": 43763,
      "Status": "OK",
      "Id": "8065",
      "CodeCity": "9800",
      "City": "בנימינה-גבעת עדה",
      "CodeAddr": "191",
      "Addr": "המרוה",
      "Tbl": "טבלת רחובות"
    },
    {
      "GoogleApiUrl": "http://maps.googleapis.com/maps/api/geocode/json?address=המרחב,+בנימינה-גבעת עדה,+ישראל&sensor=true_or_false",
      "Lat": 32.517078,
      "Lng": 34.955096,
      "Desc": null,
      "UId": 43764,
      "Status": "OK",
      "Id": "8066",
      "CodeCity": "9800",
      "City": "בנימינה-גבעת עדה",
      "CodeAddr": "169",
      "Addr": "המרחב",
      "Tbl": "טבלת רחובות"
    },
    {
      "GoogleApiUrl": "http://maps.googleapis.com/maps/api/geocode/json?address=הנביאים,+בנימינה-גבעת עדה,+ישראל&sensor=true_or_false",
      "Lat": 32.5196592,
      "Lng": 34.9366056,
      "Desc": null,
      "UId": 43765,
      "Status": "OK",
      "Id": "8067",
      "CodeCity": "9800",
      "City": "בנימינה-גבעת עדה",
      "CodeAddr": "145",
      "Addr": "הנביאים",
      "Tbl": "טבלת רחובות"
    },
    {
      "GoogleApiUrl": "http://maps.googleapis.com/maps/api/geocode/json?address=הנדיב,+בנימינה-גבעת עדה,+ישראל&sensor=true_or_false",
      "Lat": 32.5243499,
      "Lng": 34.9371224,
      "Desc": null,
      "UId": 43766,
      "Status": "OK",
      "Id": "8068",
      "CodeCity": "9800",
      "City": "בנימינה-גבעת עדה",
      "CodeAddr": "130",
      "Addr": "הנדיב",
      "Tbl": "טבלת רחובות"
    },
    {
      "GoogleApiUrl": "http://maps.googleapis.com/maps/api/geocode/json?address=הנופר גבעת עדה,+בנימינה-גבעת עדה,+ישראל&sensor=true_or_false",
      "Lat": 32.521082,
      "Lng": 35.009876,
      "Desc": null,
      "UId": 43767,
      "Status": "OK",
      "Id": "8069",
      "CodeCity": "9800",
      "City": "בנימינה-גבעת עדה",
      "CodeAddr": "3164",
      "Addr": "הנופר גבעת עדה",
      "Tbl": "טבלת רחובות"
    },
    {
      "GoogleApiUrl": "http://maps.googleapis.com/maps/api/geocode/json?address=הנורית,+בנימינה-גבעת עדה,+ישראל&sensor=true_or_false",
      "Lat": 32.5279514,
      "Lng": 34.9351577,
      "Desc": null,
      "UId": 43769,
      "Status": "OK",
      "Id": "8070",
      "CodeCity": "9800",
      "City": "בנימינה-גבעת עדה",
      "CodeAddr": "136",
      "Addr": "הנורית",
      "Tbl": "טבלת רחובות"
    },
    {
      "GoogleApiUrl": "http://maps.googleapis.com/maps/api/geocode/json?address=הנחל,+בנימינה-גבעת עדה,+ישראל&sensor=true_or_false",
      "Lat": 32.5229433,
      "Lng": 34.9550197,
      "Desc": null,
      "UId": 43770,
      "Status": "OK",
      "Id": "8071",
      "CodeCity": "9800",
      "City": "בנימינה-גבעת עדה",
      "CodeAddr": "215",
      "Addr": "הנחל",
      "Tbl": "טבלת רחובות"
    },
    {
      "GoogleApiUrl": "http://maps.googleapis.com/maps/api/geocode/json?address=הנרקיס,+בנימינה-גבעת עדה,+ישראל&sensor=true_or_false",
      "Lat": 32.4970097,
      "Lng": 34.9232194,
      "Desc": null,
      "UId": 43771,
      "Status": "OK",
      "Id": "8072",
      "CodeCity": "9800",
      "City": "בנימינה-גבעת עדה",
      "CodeAddr": "131",
      "Addr": "הנרקיס",
      "Tbl": "טבלת רחובות"
    },
    {
      "GoogleApiUrl": "http://maps.googleapis.com/maps/api/geocode/json?address=הנשיא,+בנימינה-גבעת עדה,+ישראל&sensor=true_or_false",
      "Lat": 32.5207421,
      "Lng": 34.9462432,
      "Desc": null,
      "UId": 43772,
      "Status": "OK",
      "Id": "8073",
      "CodeCity": "9800",
      "City": "בנימינה-גבעת עדה",
      "CodeAddr": "102",
      "Addr": "הנשיא",
      "Tbl": "טבלת רחובות"
    },
    {
      "GoogleApiUrl": "http://maps.googleapis.com/maps/api/geocode/json?address=הנשר,+בנימינה-גבעת עדה,+ישראל&sensor=true_or_false",
      "Lat": 32.5173513,
      "Lng": 34.9369401,
      "Desc": null,
      "UId": 43773,
      "Status": "OK",
      "Id": "8074",
      "CodeCity": "9800",
      "City": "בנימינה-גבעת עדה",
      "CodeAddr": "201",
      "Addr": "הנשר",
      "Tbl": "טבלת רחובות"
    },
    {
      "GoogleApiUrl": "http://maps.googleapis.com/maps/api/geocode/json?address=הסביון,+בנימינה-גבעת עדה,+ישראל&sensor=true_or_false",
      "Lat": 32.526499,
      "Lng": 34.9375877,
      "Desc": null,
      "UId": 43774,
      "Status": "OK",
      "Id": "8075",
      "CodeCity": "9800",
      "City": "בנימינה-גבעת עדה",
      "CodeAddr": "174",
      "Addr": "הסביון",
      "Tbl": "טבלת רחובות"
    },
    {
      "GoogleApiUrl": "http://maps.googleapis.com/maps/api/geocode/json?address=הסביון גבעת עדה,+בנימינה-גבעת עדה,+ישראל&sensor=true_or_false",
      "Lat": 32.526499,
      "Lng": 34.9375877,
      "Desc": null,
      "UId": 43775,
      "Status": "OK",
      "Id": "8076",
      "CodeCity": "9800",
      "City": "בנימינה-גבעת עדה",
      "CodeAddr": "3136",
      "Addr": "הסביון גבעת עדה",
      "Tbl": "טבלת רחובות"
    },
    {
      "GoogleApiUrl": "http://maps.googleapis.com/maps/api/geocode/json?address=הסחלב,+בנימינה-גבעת עדה,+ישראל&sensor=true_or_false",
      "Lat": 32.5239051,
      "Lng": 34.9364403,
      "Desc": null,
      "UId": 43776,
      "Status": "OK",
      "Id": "8077",
      "CodeCity": "9800",
      "City": "בנימינה-גבעת עדה",
      "CodeAddr": "176",
      "Addr": "הסחלב",
      "Tbl": "טבלת רחובות"
    },
    {
      "GoogleApiUrl": "http://maps.googleapis.com/maps/api/geocode/json?address=הסיגלית,+בנימינה-גבעת עדה,+ישראל&sensor=true_or_false",
      "Lat": 32.4993788,
      "Lng": 34.9203006,
      "Desc": null,
      "UId": 43777,
      "Status": "OK",
      "Id": "8078",
      "CodeCity": "9800",
      "City": "בנימינה-גבעת עדה",
      "CodeAddr": "158",
      "Addr": "הסיגלית",
      "Tbl": "טבלת רחובות"
    },
    {
      "GoogleApiUrl": "http://maps.googleapis.com/maps/api/geocode/json?address=הסמדר,+בנימינה-גבעת עדה,+ישראל&sensor=true_or_false",
      "Lat": 32.5253747,
      "Lng": 34.9467153,
      "Desc": null,
      "UId": 43778,
      "Status": "OK",
      "Id": "8079",
      "CodeCity": "9800",
      "City": "בנימינה-גבעת עדה",
      "CodeAddr": "146",
      "Addr": "הסמדר",
      "Tbl": "טבלת רחובות"
    },
    {
      "GoogleApiUrl": "http://maps.googleapis.com/maps/api/geocode/json?address=הסמדר גבעת עדה,+בנימינה-גבעת עדה,+ישראל&sensor=true_or_false",
      "Lat": 32.5174952,
      "Lng": 35.000506,
      "Desc": null,
      "UId": 43780,
      "Status": "OK",
      "Id": "8080",
      "CodeCity": "9800",
      "City": "בנימינה-גבעת עדה",
      "CodeAddr": "3146",
      "Addr": "הסמדר גבעת עדה",
      "Tbl": "טבלת רחובות"
    },
    {
      "GoogleApiUrl": "http://maps.googleapis.com/maps/api/geocode/json?address=הספיר,+בנימינה-גבעת עדה,+ישראל&sensor=true_or_false",
      "Lat": 32.526156,
      "Lng": 34.9450261,
      "Desc": null,
      "UId": 43781,
      "Status": "OK",
      "Id": "8081",
      "CodeCity": "9800",
      "City": "בנימינה-גבעת עדה",
      "CodeAddr": "167",
      "Addr": "הספיר",
      "Tbl": "טבלת רחובות"
    },
    {
      "GoogleApiUrl": "http://maps.googleapis.com/maps/api/geocode/json?address=העבודה,+בנימינה-גבעת עדה,+ישראל&sensor=true_or_false",
      "Lat": 32.5211157,
      "Lng": 34.9561279,
      "Desc": null,
      "UId": 43782,
      "Status": "OK",
      "Id": "8082",
      "CodeCity": "9800",
      "City": "בנימינה-גבעת עדה",
      "CodeAddr": "152",
      "Addr": "העבודה",
      "Tbl": "טבלת רחובות"
    },
    {
      "GoogleApiUrl": "http://maps.googleapis.com/maps/api/geocode/json?address=העומר גבעת עדה,+בנימינה-גבעת עדה,+ישראל&sensor=true_or_false",
      "Lat": 32.521082,
      "Lng": 35.009876,
      "Desc": null,
      "UId": 43783,
      "Status": "OK",
      "Id": "8083",
      "CodeCity": "9800",
      "City": "בנימינה-גבעת עדה",
      "CodeAddr": "3104",
      "Addr": "העומר גבעת עדה",
      "Tbl": "טבלת רחובות"
    },
    {
      "GoogleApiUrl": "http://maps.googleapis.com/maps/api/geocode/json?address=העינב,+בנימינה-גבעת עדה,+ישראל&sensor=true_or_false",
      "Lat": 32.517812,
      "Lng": 34.942498,
      "Desc": null,
      "UId": 43784,
      "Status": "OK",
      "Id": "8084",
      "CodeCity": "9800",
      "City": "בנימינה-גבעת עדה",
      "CodeAddr": "205",
      "Addr": "העינב",
      "Tbl": "טבלת רחובות"
    },
    {
      "GoogleApiUrl": "http://maps.googleapis.com/maps/api/geocode/json?address=העינב גבעת עדה,+בנימינה-גבעת עדה,+ישראל&sensor=true_or_false",
      "Lat": 32.517812,
      "Lng": 34.942498,
      "Desc": null,
      "UId": 43785,
      "Status": "OK",
      "Id": "8085",
      "CodeCity": "9800",
      "City": "בנימינה-גבעת עדה",
      "CodeAddr": "3126",
      "Addr": "העינב גבעת עדה",
      "Tbl": "טבלת רחובות"
    },
    {
      "GoogleApiUrl": "http://maps.googleapis.com/maps/api/geocode/json?address=הערבה,+בנימינה-גבעת עדה,+ישראל&sensor=true_or_false",
      "Lat": 32.521775,
      "Lng": 34.955225899999988,
      "Desc": null,
      "UId": 43786,
      "Status": "OK",
      "Id": "8086",
      "CodeCity": "9800",
      "City": "בנימינה-גבעת עדה",
      "CodeAddr": "216",
      "Addr": "הערבה",
      "Tbl": "טבלת רחובות"
    },
    {
      "GoogleApiUrl": "http://maps.googleapis.com/maps/api/geocode/json?address=הערבה גבעת עדה,+בנימינה-גבעת עדה,+ישראל&sensor=true_or_false",
      "Lat": 32.521775,
      "Lng": 34.955225899999988,
      "Desc": null,
      "UId": 43787,
      "Status": "OK",
      "Id": "8087",
      "CodeCity": "9800",
      "City": "בנימינה-גבעת עדה",
      "CodeAddr": "3161",
      "Addr": "הערבה גבעת עדה",
      "Tbl": "טבלת רחובות"
    },
    {
      "GoogleApiUrl": "http://maps.googleapis.com/maps/api/geocode/json?address=הפועל,+בנימינה-גבעת עדה,+ישראל&sensor=true_or_false",
      "Lat": 32.524532,
      "Lng": 34.9443125,
      "Desc": null,
      "UId": 43788,
      "Status": "OK",
      "Id": "8088",
      "CodeCity": "9800",
      "City": "בנימינה-גבעת עדה",
      "CodeAddr": "134",
      "Addr": "הפועל",
      "Tbl": "טבלת רחובות"
    },
    {
      "GoogleApiUrl": "http://maps.googleapis.com/maps/api/geocode/json?address=הפלג,+בנימינה-גבעת עדה,+ישראל&sensor=true_or_false",
      "Lat": 32.5240149,
      "Lng": 34.9549838,
      "Desc": null,
      "UId": 43789,
      "Status": "OK",
      "Id": "8089",
      "CodeCity": "9800",
      "City": "בנימינה-גבעת עדה",
      "CodeAddr": "217",
      "Addr": "הפלג",
      "Tbl": "טבלת רחובות"
    },
    {
      "GoogleApiUrl": "http://maps.googleapis.com/maps/api/geocode/json?address=הפרדס,+בנימינה-גבעת עדה,+ישראל&sensor=true_or_false",
      "Lat": 32.517078,
      "Lng": 34.955096,
      "Desc": null,
      "UId": 43791,
      "Status": "OK",
      "Id": "8090",
      "CodeCity": "9800",
      "City": "בנימינה-גבעת עדה",
      "CodeAddr": "229",
      "Addr": "הפרדס",
      "Tbl": "טבלת רחובות"
    },
    {
      "GoogleApiUrl": "http://maps.googleapis.com/maps/api/geocode/json?address=הצאלון,+בנימינה-גבעת עדה,+ישראל&sensor=true_or_false",
      "Lat": 32.522645,
      "Lng": 34.9414948,
      "Desc": null,
      "UId": 43792,
      "Status": "OK",
      "Id": "8091",
      "CodeCity": "9800",
      "City": "בנימינה-גבעת עדה",
      "CodeAddr": "188",
      "Addr": "הצאלון",
      "Tbl": "טבלת רחובות"
    },
    {
      "GoogleApiUrl": "http://maps.googleapis.com/maps/api/geocode/json?address=הציפורן,+בנימינה-גבעת עדה,+ישראל&sensor=true_or_false",
      "Lat": 32.5270776,
      "Lng": 34.9435957,
      "Desc": null,
      "UId": 43793,
      "Status": "OK",
      "Id": "8092",
      "CodeCity": "9800",
      "City": "בנימינה-גבעת עדה",
      "CodeAddr": "124",
      "Addr": "הציפורן",
      "Tbl": "טבלת רחובות"
    },
    {
      "GoogleApiUrl": "http://maps.googleapis.com/maps/api/geocode/json?address=הקורל,+בנימינה-גבעת עדה,+ישראל&sensor=true_or_false",
      "Lat": 32.527296199999988,
      "Lng": 34.93819,
      "Desc": null,
      "UId": 43794,
      "Status": "OK",
      "Id": "8093",
      "CodeCity": "9800",
      "City": "בנימינה-גבעת עדה",
      "CodeAddr": "159",
      "Addr": "הקורל",
      "Tbl": "טבלת רחובות"
    },
    {
      "GoogleApiUrl": "http://maps.googleapis.com/maps/api/geocode/json?address=הקטיף,+בנימינה-גבעת עדה,+ישראל&sensor=true_or_false",
      "Lat": 32.4663375,
      "Lng": 34.9541371,
      "Desc": null,
      "UId": 43795,
      "Status": "OK",
      "Id": "8094",
      "CodeCity": "9800",
      "City": "בנימינה-גבעת עדה",
      "CodeAddr": "226",
      "Addr": "הקטיף",
      "Tbl": "טבלת רחובות"
    },
    {
      "GoogleApiUrl": "http://maps.googleapis.com/maps/api/geocode/json?address=הקמה גבעת עדה,+בנימינה-גבעת עדה,+ישראל&sensor=true_or_false",
      "Lat": 32.5206205,
      "Lng": 35.014035,
      "Desc": null,
      "UId": 43796,
      "Status": "OK",
      "Id": "8095",
      "CodeCity": "9800",
      "City": "בנימינה-גבעת עדה",
      "CodeAddr": "3121",
      "Addr": "הקמה גבעת עדה",
      "Tbl": "טבלת רחובות"
    },
    {
      "GoogleApiUrl": "http://maps.googleapis.com/maps/api/geocode/json?address=הקציר,+בנימינה-גבעת עדה,+ישראל&sensor=true_or_false",
      "Lat": 32.51339,
      "Lng": 34.944962,
      "Desc": null,
      "UId": 43797,
      "Status": "OK",
      "Id": "8096",
      "CodeCity": "9800",
      "City": "בנימינה-גבעת עדה",
      "CodeAddr": "212",
      "Addr": "הקציר",
      "Tbl": "טבלת רחובות"
    },
    {
      "GoogleApiUrl": "http://maps.googleapis.com/maps/api/geocode/json?address=הראשונים גבעת עדה,+בנימינה-גבעת עדה,+ישראל&sensor=true_or_false",
      "Lat": 32.5183256,
      "Lng": 35.003820800000007,
      "Desc": null,
      "UId": 43798,
      "Status": "OK",
      "Id": "8097",
      "CodeCity": "9800",
      "City": "בנימינה-גבעת עדה",
      "CodeAddr": "3111",
      "Addr": "הראשונים גבעת עדה",
      "Tbl": "טבלת רחובות"
    },